Neighbourhood;Neighbourhood Latitude;Neighbourhood Longitude;Venue;Venue Latitude;Venue Longitude;Venue Category
Palacio;40.41542813957815;-3.713981305934884;Santa Iglesia Catedral de Santa María la Real de la Almudena (Catedral de la Almudena);40.41576693264202;-3.7145161628723145;Church
Palacio;40.41542813957815;-3.713981305934884;Cervecería La Mayor;40.41521786102789;-3.7121938520878386;Beer Bar
Palacio;40.41542813957815;-3.713981305934884;Mercado Jamón Iberico;40.41544225;-3.71164314;Market
Palacio;40.41542813957815;-3.713981305934884;Plaza de La Almudena;40.41631960737639;-3.713776929870609;Plaza
Palacio;40.41542813957815;-3.713981305934884;Palacio Real de Madrid;40.41793972010854;-3.714258670806885;Palace
Palacio;40.41542813957815;-3.713981305934884;Charlie Champagne;40.41393640099747;-3.712647348286377;Restaurant
Palacio;40.41542813957815;-3.713981305934884;Plaza de Ramales;40.41703689886453;-3.711625909170824;Plaza
Palacio;40.41542813957815;-3.713981305934884;Taberna Rayuela;40.41317891156541;-3.7134962971934686;Tapas Restaurant
Palacio;40.41542813957815;-3.713981305934884;Plaza de la Villa;40.415408601788656;-3.710390924213192;Historic Site
Palacio;40.41542813957815;-3.713981305934884;Zuccaru;40.417179;-3.711674;Ice Cream Shop
Palacio;40.41542813957815;-3.713981305934884;La Tapería Mayor;40.41543798099699;-3.711252549354675;Paella Restaurant
Palacio;40.41542813957815;-3.713981305934884;Corral de la Morería;40.412619019854375;-3.7142493289306913;Performing Arts Venue
Palacio;40.41542813957815;-3.713981305934884;la gastroteca de santiago;40.4166394850381;-3.710943995357369;Restaurant
Palacio;40.41542813957815;-3.713981305934884;Plaza de Oriente;40.418325668437966;-3.712196052074432;Plaza
Palacio;40.41542813957815;-3.713981305934884;Restaurante Taberneros;40.416457775789596;-3.7103856206505745;Spanish Restaurant
Palacio;40.41542813957815;-3.713981305934884;Plaza de la Paja;40.41290469221371;-3.711675718271377;Plaza
Palacio;40.41542813957815;-3.713981305934884;Jardín del Príncipe de Anglona;40.41359508044958;-3.7114285283775614;Garden
Palacio;40.41542813957815;-3.713981305934884;Café de Oriente;40.41808083605312;-3.7118667284955524;Spanish Restaurant
Palacio;40.41542813957815;-3.713981305934884;Teatro Real de Madrid;40.41822583203057;-3.7110644324883078;Opera House
Palacio;40.41542813957815;-3.713981305934884;El Landó;40.411899822;-3.71507637;Spanish Restaurant
Palacio;40.41542813957815;-3.713981305934884;La Esquina del Real;40.41735567714916;-3.710364295560296;French Restaurant
Palacio;40.41542813957815;-3.713981305934884;Jardines de las Vistillas;40.4123433475275;-3.714763272346025;Park
Palacio;40.41542813957815;-3.713981305934884;Basílica de San Miguel;40.41413836034796;-3.709684508176225;Church
Palacio;40.41542813957815;-3.713981305934884;Mercado de San Miguel;40.41544294871344;-3.708943462311585;Market
Palacio;40.41542813957815;-3.713981305934884;Muralla musulmana de Madrid;40.414880609756715;-3.7149895156627006;Historic Site
Palacio;40.41542813957815;-3.713981305934884;Tienda La Rebelión de los Mandiles;40.41513265500589;-3.7133581694444984;Wine Shop
Palacio;40.41542813957815;-3.713981305934884;Pinkleton & Wine;40.41538988001937;-3.7090504621760862;Wine Bar
Palacio;40.41542813957815;-3.713981305934884;Santa Eulalia Boulangerie Pâtisserie ;40.41715285298552;-3.709777555340336;Pie Shop
Palacio;40.41542813957815;-3.713981305934884;Café Bar Delic;40.41273870787581;-3.711678450125613;Café
Palacio;40.41542813957815;-3.713981305934884;La Musa Latina;40.41283455101768;-3.7117671604527014;Tapas Restaurant
Palacio;40.41542813957815;-3.713981305934884;Viva Burger;40.41263019326825;-3.7116827479753303;Vegetarian / Vegan Restaurant
Palacio;40.41542813957815;-3.713981305934884;Gauranga Trascendental Food;40.412891557155;-3.7134861946105957;Vegetarian / Vegan Restaurant
Palacio;40.41542813957815;-3.713981305934884;El Pimiento Verde;40.415176880064905;-3.7092593345130243;Spanish Restaurant
Palacio;40.41542813957815;-3.713981305934884;Lhardy;40.41543499531071;-3.708833665033407;Tapas Restaurant
Palacio;40.41542813957815;-3.713981305934884;Zoco Comidero Bar;40.41328907548855;-3.7134631663750186;Gastropub
Palacio;40.41542813957815;-3.713981305934884;El Estudio de los Arquitectos;40.41252736670137;-3.710673020549052;Cocktail Bar
Palacio;40.41542813957815;-3.713981305934884;Metropolis Center;40.416830017639526;-3.7097529827219335;Hobby Shop
Palacio;40.41542813957815;-3.713981305934884;Plaza de San Miguel;40.41544339138004;-3.7089967652197884;Plaza
Palacio;40.41542813957815;-3.713981305934884;Federal Café 2;40.41445972417601;-3.7087736699569414;Café
Palacio;40.41542813957815;-3.713981305934884;Amorino;40.41606544853993;-3.7083827962064877;Ice Cream Shop
Palacio;40.41542813957815;-3.713981305934884;Gayane's Madrid;40.41696769228408;-3.7096318602561946;Caucasian Restaurant
Palacio;40.41542813957815;-3.713981305934884;Astór Gastrobar;40.41273;-3.709617;Spanish Restaurant
Palacio;40.41542813957815;-3.713981305934884;Gyoza Go!;40.41617944092178;-3.7086119502782817;Dumpling Restaurant
Palacio;40.41542813957815;-3.713981305934884;Pizzeria Mayor;40.412788599966305;-3.7174735135512917;Pizza Place
Palacio;40.41542813957815;-3.713981305934884;Segway Trip Madrid;40.4156910006765;-3.7092208547258845;Resort
Palacio;40.41542813957815;-3.713981305934884;Plaza de Isabel II;40.41811399542555;-3.709396616703088;Plaza
Palacio;40.41542813957815;-3.713981305934884;El Sainete;40.413581983613454;-3.7102418791284073;Beer Bar
Palacio;40.41542813957815;-3.713981305934884;Plaza Menor;40.41419167633601;-3.708494089705739;Lounge
Palacio;40.41542813957815;-3.713981305934884;Mesón del Champiñón;40.414956249703074;-3.7082325358687616;Tapas Restaurant
Palacio;40.41542813957815;-3.713981305934884;FitUp;40.41489987922848;-3.7091908728207295;Gym / Fitness Center
Embajadores;40.40924739523177;-3.702371641478595;López & López;40.40949877800912;-3.7040456799697785;Pizza Place
Embajadores;40.40924739523177;-3.702371641478595;Mercado de San Fernando;40.40772000673654;-3.7036774230708462;Market
Embajadores;40.40924739523177;-3.702371641478595;PUM PUM CAFÉ;40.408052755824485;-3.7019489245460124;Coffee Shop
Embajadores;40.40924739523177;-3.702371641478595;La buena pinta;40.407715422064975;-3.7036407242011156;Liquor Store
Embajadores;40.40924739523177;-3.702371641478595;NAP Neapolitan Authentic Pizza;40.41082784575748;-3.700475451857145;Pizza Place
Embajadores;40.40924739523177;-3.702371641478595;Bendito Vinos y Vinilos;40.407497;-3.703717;Wine Shop
Embajadores;40.40924739523177;-3.702371641478595;Teatro Del Barrio;40.409666440324926;-3.699222340056091;Theater
Embajadores;40.40924739523177;-3.702371641478595;Plantate;40.410365;-3.704543;Coffee Shop
Embajadores;40.40924739523177;-3.702371641478595;El Boquerón;40.40746;-3.700408;Seafood Restaurant
Embajadores;40.40924739523177;-3.702371641478595;Cafelito;40.40836;-3.702761;Coffee Shop
Embajadores;40.40924739523177;-3.702371641478595;Bodega Lo Máximo;40.410397111885295;-3.7016812497020473;Bar
Embajadores;40.40924739523177;-3.702371641478595;Los Porfiados;40.410110365834385;-3.698907434582576;Argentinian Restaurant
Embajadores;40.40924739523177;-3.702371641478595;El Sur;40.411135324189495;-3.699521331741858;Restaurant
Embajadores;40.40924739523177;-3.702371641478595;Tabacalera  Promoción del Arte;40.40638581945433;-3.7032421479989543;Art Gallery
Embajadores;40.40924739523177;-3.702371641478595;ADORADO;40.410529;-3.704728;Diner
Embajadores;40.40924739523177;-3.702371641478595;Plaza de Lavapiés;40.408416062337736;-3.7007537404057764;Plaza
Embajadores;40.40924739523177;-3.702371641478595;Chinaski Lavapiés;40.408898827011285;-3.699293266071816;Bar
Embajadores;40.40924739523177;-3.702371641478595;Casa Pachuco;40.41082162929018;-3.6994234493363587;Tapas Restaurant
Embajadores;40.40924739523177;-3.702371641478595;Hola Coffee;40.40708312303291;-3.6991170007772296;Coffee Shop
Embajadores;40.40924739523177;-3.702371641478595;Juan Raro;40.407007881585116;-3.7010805819249994;Tapas Restaurant
Embajadores;40.40924739523177;-3.702371641478595;Cafe De Ratas;40.408681;-3.699401;Bar
Embajadores;40.40924739523177;-3.702371641478595;Libreria Cafe El Dinosaurio Todavia Estaba Alli;40.41167506219228;-3.700300547654981;Café
Embajadores;40.40924739523177;-3.702371641478595;La Esperanza;40.41149716350271;-3.6994495684985402;Mediterranean Restaurant
Embajadores;40.40924739523177;-3.702371641478595;La Escalera de Jacob;40.411365291035445;-3.7029080037262725;Theater
Embajadores;40.40924739523177;-3.702371641478595;CSA La Tabacalera de Lavapiés;40.40613451937499;-3.702630117571652;Event Space
Embajadores;40.40924739523177;-3.702371641478595;Las Musas Hostel Madrid;40.41139380854493;-3.7040808684791333;Hostel
Embajadores;40.40924739523177;-3.702371641478595;El Rincón del Cabo;40.411716;-3.7030745;Bar
Embajadores;40.40924739523177;-3.702371641478595;Distrito Vegano;40.40697203771007;-3.6996788206851368;Vegetarian / Vegan Restaurant
Embajadores;40.40924739523177;-3.702371641478595;Swinton & Grant;40.40595337214276;-3.70187059849157;Art Gallery
Embajadores;40.40924739523177;-3.702371641478595;Way Hostel;40.41263845574944;-3.7033413990304274;Hostel
Embajadores;40.40924739523177;-3.702371641478595;2060 The Newton Hostel;40.411860676778495;-3.703510996622369;Hostel
Embajadores;40.40924739523177;-3.702371641478595;La Fantástica de Lavapiés;40.40881804788794;-3.705266309476869;Bar
Embajadores;40.40924739523177;-3.702371641478595;La Encomienda;40.410671971184456;-3.7059818747088813;Vegetarian / Vegan Restaurant
Embajadores;40.40924739523177;-3.702371641478595;Tribuetxe;40.40750002840896;-3.70322450139908;Tapas Restaurant
Embajadores;40.40924739523177;-3.702371641478595;Yoka Loka;40.41161458501999;-3.698692811574475;Sushi Restaurant
Embajadores;40.40924739523177;-3.702371641478595;Cine Doré;40.41183256074677;-3.6992668712271692;Movie Theater
Embajadores;40.40924739523177;-3.702371641478595;Toga;40.41111841899132;-3.70667299456038;Spanish Restaurant
Embajadores;40.40924739523177;-3.702371641478595;El Colmo;40.41159759840829;-3.6996274045843887;Bar
Embajadores;40.40924739523177;-3.702371641478595;Café Pavón;40.41015211180619;-3.7063668093387503;Breakfast Spot
Embajadores;40.40924739523177;-3.702371641478595;Taberna Badila;40.411776724089535;-3.703688928833252;Spanish Restaurant
Embajadores;40.40924739523177;-3.702371641478595;La Fugitiva;40.4113090168111;-3.6986633938938414;Bookstore
Embajadores;40.40924739523177;-3.702371641478595;Mercado de Antón Martín;40.41152590000001;-3.6987288;Market
Embajadores;40.40924739523177;-3.702371641478595;Esta es una plaza;40.40739709889638;-3.6982457639352124;Plaza
Embajadores;40.40924739523177;-3.702371641478595;ok hostel;40.411135489335344;-3.7068188834260543;Hostel
Embajadores;40.40924739523177;-3.702371641478595;Casa Patas;40.41267737917284;-3.7017365524042884;Performing Arts Venue
Embajadores;40.40924739523177;-3.702371641478595;El Imparcial;40.411928907144485;-3.7057817062423974;Bistro
Embajadores;40.40924739523177;-3.702371641478595;Lamiak;40.4118;-3.6996272;Bar
Embajadores;40.40924739523177;-3.702371641478595;La Casa Encendida;40.405996939819225;-3.6999129806319777;Art Gallery
Embajadores;40.40924739523177;-3.702371641478595;Ferreteria By Ego;40.412558;-3.699631;Restaurant
Embajadores;40.40924739523177;-3.702371641478595;Teatro Pavón;40.410001840156795;-3.7062980491013597;Theater
Cortes;40.41485329902773;-3.6967401935970057;The Westin Palace;40.4154231;-3.695585;Hotel
Cortes;40.41485329902773;-3.6967401935970057;La Cabaña Argentina;40.415696026060175;-3.6989742057930957;Argentinian Restaurant
Cortes;40.41485329902773;-3.6967401935970057;Lobby Westin Palace;40.41508358196816;-3.6953044519027536;Hotel Bar
Cortes;40.41485329902773;-3.6967401935970057;DoubleTree by Hilton;40.415196669257774;-3.696738012419433;Hotel
Cortes;40.41485329902773;-3.6967401935970057;Arrocería Marina Ventura;40.41535302116083;-3.6989406886968395;Paella Restaurant
Cortes;40.41485329902773;-3.6967401935970057;Museo Thyssen-Bornemisza;40.41635928605382;-3.6948908136558845;Art Museum
Cortes;40.41485329902773;-3.6967401935970057;Salmon Gurú;40.41486660560401;-3.6995319613728506;Cocktail Bar
Cortes;40.41485329902773;-3.6967401935970057;Casa Museo Lope de Vega;40.41432648950357;-3.6974677331399093;Museum
Cortes;40.41485329902773;-3.6967401935970057;Mercure Madrid Centro;40.41401857356361;-3.6945064220506083;Hotel
Cortes;40.41485329902773;-3.6967401935970057;Fuente de Neptuno;40.41526048337471;-3.69415819644928;Fountain
Cortes;40.41485329902773;-3.6967401935970057;El Rincon de Esteban;40.4158025189281;-3.697742684114137;Spanish Restaurant
Cortes;40.41485329902773;-3.6967401935970057;Plaza de las Cortes;40.41577337519694;-3.696093259487371;Plaza
Cortes;40.41485329902773;-3.6967401935970057;Café-Concierto La Fídula;40.41320930895101;-3.6964351529079273;Jazz Club
Cortes;40.41485329902773;-3.6967401935970057;El Barril de las Letras;40.41435989216732;-3.6967134353360627;Spanish Restaurant
Cortes;40.41485329902773;-3.6967401935970057;La Rotonda;40.415386;-3.6956787;Mediterranean Restaurant
Cortes;40.41485329902773;-3.6967401935970057;Lamucca de Prado;40.41483704752955;-3.6985914897741425;Restaurant
Cortes;40.41485329902773;-3.6967401935970057;La Dolores;40.413811807653936;-3.6956569729216513;Bar
Cortes;40.41485329902773;-3.6967401935970057;Vincci Soho Hotel;40.414773109204305;-3.6981597930800554;Hotel
Cortes;40.41485329902773;-3.6967401935970057;Paseo del Prado;40.41530949476073;-3.6939167976379395;Road
Cortes;40.41485329902773;-3.6967401935970057;Kirei Las Cortes by Kabuki;40.415376;-3.696714;Japanese Restaurant
Cortes;40.41485329902773;-3.6967401935970057;Plaza Cánovas del Castillo;40.415268651941545;-3.6941850185394287;Plaza
Cortes;40.41485329902773;-3.6967401935970057;Teatro de La Zarzuela;40.41718415347722;-3.6970549821853633;Theater
Cortes;40.41485329902773;-3.6967401935970057;Alimentación Quiroga;40.413759722199444;-3.6994574585588165;Grocery Store
Cortes;40.41485329902773;-3.6967401935970057;Vinoteca Moratín;40.41261947884343;-3.695511165213914;Restaurant
Cortes;40.41485329902773;-3.6967401935970057;Casa González;40.41398980434345;-3.698821409425091;Deli / Bodega
Cortes;40.41485329902773;-3.6967401935970057;Brew Wild Pizza Bar;40.41475946000275;-3.6995527418074725;Beer Bar
Cortes;40.41485329902773;-3.6967401935970057;Triciclo Restaurante y Barra;40.412909750560765;-3.697167025191445;Restaurant
Cortes;40.41485329902773;-3.6967401935970057;The Green Tea;40.41555046962283;-3.695576169550264;Japanese Restaurant
Cortes;40.41485329902773;-3.6967401935970057;Plenti;40.41213451312291;-3.696623656621767;Café
Cortes;40.41485329902773;-3.6967401935970057;Hotel Villa Real;40.4156812303909;-3.6967584944775336;Hotel
Cortes;40.41485329902773;-3.6967401935970057;La Ancha;40.41676535921217;-3.697570902607902;Spanish Restaurant
Cortes;40.41485329902773;-3.6967401935970057;Fogg Birra and Cheese;40.41227536098442;-3.69798791617441;Pub
Cortes;40.41485329902773;-3.6967401935970057;La Revoltosa De Prado;40.414541;-3.699663;Spanish Restaurant
Cortes;40.41485329902773;-3.6967401935970057;Le Comptoir de la Crêpe;40.412999;-3.695733;Creperie
Cortes;40.41485329902773;-3.6967401935970057;Chocolat;40.41289086814537;-3.697064538818191;Café
Cortes;40.41485329902773;-3.6967401935970057;La Venencia;40.41574103686409;-3.6995741997563174;Wine Bar
Cortes;40.41485329902773;-3.6967401935970057;Edelweiss;40.416837;-3.696668;Restaurant
Cortes;40.41485329902773;-3.6967401935970057;Mesón El Lacón;40.4151474192688;-3.6992614379833095;Spanish Restaurant
Cortes;40.41485329902773;-3.6967401935970057;Hotel Catalonia Las Cortes;40.41455350661714;-3.699494762288463;Hotel
Cortes;40.41485329902773;-3.6967401935970057;Hotel Urban Madrid;40.416372;-3.698679;Hotel
Cortes;40.41485329902773;-3.6967401935970057;Dos Gardenias;40.413029716325006;-3.697696668986562;Bar
Cortes;40.41485329902773;-3.6967401935970057;La Sanabresa;40.41256047164362;-3.6984811188512157;Mediterranean Restaurant
Cortes;40.41485329902773;-3.6967401935970057;La Tarasca;40.41246604898451;-3.696384250999628;Cocktail Bar
Cortes;40.41485329902773;-3.6967401935970057;Chuka Ramen Bar;40.41574972380364;-3.699533410240009;Noodle House
Cortes;40.41485329902773;-3.6967401935970057;El Sur De Huertas;40.41371861297169;-3.6993944253541087;Bar
Cortes;40.41485329902773;-3.6967401935970057;Cervecería Cervantes;40.41424917795828;-3.6956805516466575;Spanish Restaurant
Cortes;40.41485329902773;-3.6967401935970057;Be Hoppy;40.4124572;-3.695562999999993;Beer Store
Cortes;40.41485329902773;-3.6967401935970057;Teatro Español;40.41472295273593;-3.7006151566523107;Theater
Cortes;40.41485329902773;-3.6967401935970057;Cardamomo;40.41541506713712;-3.6995539657944128;Nightclub
Cortes;40.41485329902773;-3.6967401935970057;Indian Aroma;40.41593028753377;-3.6989345554219186;Indian Restaurant
Justicia;40.4236676354555;-3.696569286772904;Bee Beer;40.421952;-3.6969;Beer Store
Justicia;40.4236676354555;-3.696569286772904;Honest Greens;40.42487975679924;-3.697894121919185;Restaurant
Justicia;40.4236676354555;-3.696569286772904;DSTAgE;40.42472945683953;-3.6963052685894597;Restaurant
Justicia;40.4236676354555;-3.696569286772904;Only YOU Hotel&Lounge;40.422227356410346;-3.6957616908073305;Hotel
Justicia;40.4236676354555;-3.696569286772904;celicioso;40.4221118727551;-3.695725917401657;Bakery
Justicia;40.4236676354555;-3.696569286772904;La Duquesita;40.42551;-3.696688;Dessert Shop
Justicia;40.4236676354555;-3.696569286772904;Plaza de Chueca;40.422724108271076;-3.697588319370037;Plaza
Justicia;40.4236676354555;-3.696569286772904;Flores Miguel;40.425111054378235;-3.697822093963623;Flower Shop
Justicia;40.4236676354555;-3.696569286772904;Mercado de San Antón;40.422026654099746;-3.6976117762588196;Market
Justicia;40.4236676354555;-3.696569286772904;Labonata;40.42273684690052;-3.6975991809831346;Ice Cream Shop
Justicia;40.4236676354555;-3.696569286772904;Areia Chill Out;40.42454417505237;-3.698087995384402;Cocktail Bar
Justicia;40.4236676354555;-3.696569286772904;Pizzaiolo;40.42379534723905;-3.698597330722856;Italian Restaurant
Justicia;40.4236676354555;-3.696569286772904;Pomme Sucre;40.42426931653732;-3.695488061589619;Bakery
Justicia;40.4236676354555;-3.696569286772904;El Cafetin De Fernando VI;40.42484543685317;-3.6957562579032963;Café
Justicia;40.4236676354555;-3.696569286772904;Bikram Yoga Center;40.42365488697568;-3.695511209788157;Yoga Studio
Justicia;40.4236676354555;-3.696569286772904;Toni 2;40.42257662972243;-3.6947980739400763;Piano Bar
Justicia;40.4236676354555;-3.696569286772904;Mamá Framboise;40.424751875150555;-3.6956153895680166;Pie Shop
Justicia;40.4236676354555;-3.696569286772904;Bunny's Deli;40.423935;-3.6971583;Vegetarian / Vegan Restaurant
Justicia;40.4236676354555;-3.696569286772904;Krachai;40.425341641247975;-3.6962992873730958;Thai Restaurant
Justicia;40.4236676354555;-3.696569286772904;Terraza de San Antón;40.422051905187736;-3.6976134285303153;Beer Garden
Justicia;40.4236676354555;-3.696569286772904;Only YOU Boutique Hotel Madrid;40.4222068974461;-3.69572079262908;Hotel
Justicia;40.4236676354555;-3.696569286772904;Magasand;40.42490647341871;-3.6974796653646553;Salad Place
Justicia;40.4236676354555;-3.696569286772904;amantis;40.423377544311656;-3.6980432523726643;Adult Boutique
Justicia;40.4236676354555;-3.696569286772904;Frutas Prohibidas;40.422569382355036;-3.6969282777593326;Juice Bar
Justicia;40.4236676354555;-3.696569286772904;Sr. Ito;40.42419418250838;-3.697464102646731;Sushi Restaurant
Justicia;40.4236676354555;-3.696569286772904;Charrua;40.422416;-3.693999;BBQ Joint
Justicia;40.4236676354555;-3.696569286772904;Food Truck;40.42381557557015;-3.6960864532494018;American Restaurant
Justicia;40.4236676354555;-3.696569286772904;Morgana;40.422215;-3.697813;Restaurant
Justicia;40.4236676354555;-3.696569286772904;La Panaderia de Chueca;40.423086857922954;-3.697484191788935;Bakery
Justicia;40.4236676354555;-3.696569286772904;Kuoco 360;40.421841757;-3.698455902;Restaurant
Justicia;40.4236676354555;-3.696569286772904;Cannibal Raw Bar;40.42250153573088;-3.694248172533777;Spanish Restaurant
Justicia;40.4236676354555;-3.696569286772904;Panod;40.42196050145854;-3.6954788629561257;Bakery
Justicia;40.4236676354555;-3.696569286772904;Cafés Arrivederci;40.42239983850301;-3.6984653209661364;Café
Justicia;40.4236676354555;-3.696569286772904;Baranoa;40.42307876249345;-3.6982967962070137;Gay Bar
Justicia;40.4236676354555;-3.696569286772904;Jeco Bellas Artes;40.423345057;-3.698061506;Arts & Crafts Store
Justicia;40.4236676354555;-3.696569286772904;La Magdalena De Proust;40.42460392606179;-3.6964391916207426;Deli / Bodega
Justicia;40.4236676354555;-3.696569286772904;Mal de Amores;40.42225718566712;-3.6966339163444717;Restaurant
Justicia;40.4236676354555;-3.696569286772904;Tienda de Vinos (El Comunista);40.42214174422174;-3.6974815605101155;Spanish Restaurant
Justicia;40.4236676354555;-3.696569286772904;niMÚ Barquillo;40.42394311013904;-3.695424199104309;Spanish Restaurant
Justicia;40.4236676354555;-3.696569286772904;Barrutia;40.425497;-3.695406;Restaurant
Justicia;40.4236676354555;-3.696569286772904;Fulanita de Tal;40.424668512406484;-3.6964409288360884;Nightclub
Justicia;40.4236676354555;-3.696569286772904;Panta Rhei;40.423553323104244;-3.7001508785469985;Bookstore
Justicia;40.4236676354555;-3.696569286772904;La Hummuseria;40.423474938716694;-3.700036508653173;Vegetarian / Vegan Restaurant
Justicia;40.4236676354555;-3.696569286772904;Capperi Mercato Italiano;40.42590349266851;-3.6971252798566607;Deli / Bodega
Justicia;40.4236676354555;-3.696569286772904;Vides;40.42101652377878;-3.6973542003338395;Gastropub
Justicia;40.4236676354555;-3.696569286772904;Macera Tallerbar;40.42610213289051;-3.6981758494799846;Cocktail Bar
Justicia;40.4236676354555;-3.696569286772904;Trattoria Pulcinella;40.424623321374746;-3.6964957038692723;Italian Restaurant
Justicia;40.4236676354555;-3.696569286772904;Petit Palace Santa Barbara;40.42640492905801;-3.696361238298084;Hotel
Justicia;40.4236676354555;-3.696569286772904;La Buha;40.423134;-3.69815;Tapas Restaurant
Justicia;40.4236676354555;-3.696569286772904;El Cisne Azul;40.4226125570602;-3.696732565805115;Spanish Restaurant
Universidad;40.42567834546141;-3.7069788144872016;1862;40.42426061399935;-3.706602068336985;Cocktail Bar
Universidad;40.42567834546141;-3.7069788144872016;Pez Tortilla;40.4242382067626;-3.706568309829162;Tapas Restaurant
Universidad;40.42567834546141;-3.7069788144872016;Toma Café;40.42650984196803;-3.7059470889382538;Coffee Shop
Universidad;40.42567834546141;-3.7069788144872016;Movilonia.com;40.42643713828792;-3.7054036112477533;Mobile Phone Shop
Universidad;40.42567834546141;-3.7069788144872016;Eric Vökel Boutique Apartments;40.42629146021611;-3.706962739482536;Hotel
Universidad;40.42567834546141;-3.7069788144872016;J&J Books and Coffee;40.42563730331122;-3.7066643297580195;Bookstore
Universidad;40.42567834546141;-3.7069788144872016;Carmencita;40.426141864460845;-3.7073716314199663;Breakfast Spot
Universidad;40.42567834546141;-3.7069788144872016;Cervantes y compañía;40.42427101615698;-3.706661645961943;Bookstore
Universidad;40.42567834546141;-3.7069788144872016;Casa Macareno;40.42587927392769;-3.7047823256126224;Bar
Universidad;40.42567834546141;-3.7069788144872016;La Colmada;40.42547618019526;-3.7043642238817385;Restaurant
Universidad;40.42567834546141;-3.7069788144872016;HanSo Café;40.423912322535884;-3.7055842487583757;Café
Universidad;40.42567834546141;-3.7069788144872016;La Gringa;40.42617843445485;-3.707859523116006;Mexican Restaurant
Universidad;40.42567834546141;-3.7069788144872016;¡Ay mi Madre!;40.426422523837424;-3.704948732827842;Pizza Place
Universidad;40.42567834546141;-3.7069788144872016;Bar Picnic;40.424227333880616;-3.706277774316606;Cocktail Bar
Universidad;40.42567834546141;-3.7069788144872016;Pontepez;40.42377716955972;-3.7054651587022125;Tapas Restaurant
Universidad;40.42567834546141;-3.7069788144872016;Cafe Angelica;40.423226309929944;-3.707465329347798;Café
Universidad;40.42567834546141;-3.7069788144872016;La Dichosa;40.42652303865942;-3.7097822842636523;Tapas Restaurant
Universidad;40.42567834546141;-3.7069788144872016;Ojalá;40.42539107275883;-3.7040164965431708;Restaurant
Universidad;40.42567834546141;-3.7069788144872016;Mad4You;40.426173176410565;-3.7055606708470004;Hostel
Universidad;40.42567834546141;-3.7069788144872016;Federal Café;40.427173427148695;-3.7092873110522837;Café
Universidad;40.42567834546141;-3.7069788144872016;Casa Camacho;40.42560985618413;-3.703879814004389;Bar
Universidad;40.42567834546141;-3.7069788144872016;Misión Café;40.42431188018363;-3.7087247498745755;Coffee Shop
Universidad;40.42567834546141;-3.7069788144872016;Casa Federica;40.42398175672907;-3.7087566565709693;Argentinian Restaurant
Universidad;40.42567834546141;-3.7069788144872016;Plaza del Dos de Mayo;40.42692195722176;-3.703914677761667;Plaza
Universidad;40.42567834546141;-3.7069788144872016;Delish Vegan Doughnuts;40.42694912512703;-3.7100989203246573;Donut Shop
Universidad;40.42567834546141;-3.7069788144872016;Elektra Cómic;40.42260273588236;-3.7075021558967127;Miscellaneous Shop
Universidad;40.42567834546141;-3.7069788144872016;la fiambrera;40.42330325140642;-3.7047039507375543;Art Gallery
Universidad;40.42567834546141;-3.7069788144872016;Restaurante Lily;40.42311435242576;-3.709037008777121;Peruvian Restaurant
Universidad;40.42567834546141;-3.7069788144872016;Tres Rosas Amarillas;40.4252647323818;-3.702986887390745;Bookstore
Universidad;40.42567834546141;-3.7069788144872016;Sportivo;40.42708261745621;-3.7105612485201975;Men's Store
Universidad;40.42567834546141;-3.7069788144872016;Muy Placer en Conserva;40.428056117541274;-3.709507857941393;Bar
Universidad;40.42567834546141;-3.7069788144872016;De Mercado;40.423397068692836;-3.70886969263795;Spanish Restaurant
Universidad;40.42567834546141;-3.7069788144872016;Plaza de Guardias de Corps;40.427059263278096;-3.7103424483736536;Plaza
Universidad;40.42567834546141;-3.7069788144872016;Casa Julio;40.42429216821949;-3.703590104092062;Spanish Restaurant
Universidad;40.42567834546141;-3.7069788144872016;KuRGaN Club;40.42617220093295;-3.704165236744909;Nightclub
Universidad;40.42567834546141;-3.7069788144872016;Vacaciones;40.42535219968041;-3.7037148472702186;Cocktail Bar
Universidad;40.42567834546141;-3.7069788144872016;Lolina Vintage Café;40.42510696852098;-3.702911690431714;Lounge
Universidad;40.42567834546141;-3.7069788144872016;Hoy no me puedo levantar;40.42346653244526;-3.7097146636451637;General Entertainment
Universidad;40.42567834546141;-3.7069788144872016;VEGA;40.42231841389461;-3.7060473848532434;Vegetarian / Vegan Restaurant
Universidad;40.42567834546141;-3.7069788144872016;Teatro Lara;40.42244712611381;-3.70476034070178;Theater
Universidad;40.42567834546141;-3.7069788144872016;Lamucca;40.423160346582144;-3.7040597217866043;Mediterranean Restaurant
Universidad;40.42567834546141;-3.7069788144872016;Quesería Cultivo;40.42898649101808;-3.7093759094310137;Cheese Shop
Universidad;40.42567834546141;-3.7069788144872016;Omega Center;40.422656871925795;-3.706498949269775;Hobby Shop
Universidad;40.42567834546141;-3.7069788144872016;Hotel Riu Plaza De España;40.42399;-3.711148;Hotel
Universidad;40.42567834546141;-3.7069788144872016;La Musa;40.42877595246651;-3.704374571739893;Tapas Restaurant
Universidad;40.42567834546141;-3.7069788144872016;Casa Antonio;40.42741582975337;-3.707567649359964;Spanish Restaurant
Universidad;40.42567834546141;-3.7069788144872016;Chilling Café;40.42201400548159;-3.706108026089968;Café
Universidad;40.42567834546141;-3.7069788144872016;Chopper Monster;40.42584619831552;-3.7018201527200567;Clothing Store
Universidad;40.42567834546141;-3.7069788144872016;Cuartel del Conde Duque;40.42744057009173;-3.7110438951480864;Public Art
Universidad;40.42567834546141;-3.7069788144872016;Veggie ROOM;40.42561788064848;-3.702635072690808;Health Food Store
Sol;40.41732067395507;-3.704462725129166;Puerta del Sol;40.4170267569777;-3.703442763596807;Plaza
Sol;40.41732067395507;-3.704462725129166;Club del Gourmet Corte Ingles;40.41749665225322;-3.704686028127798;Gourmet Shop
Sol;40.41732067395507;-3.704462725129166;LUSH;40.41901214762635;-3.704898374374776;Cosmetics Shop
Sol;40.41732067395507;-3.704462725129166;Apple Puerta del Sol;40.416996;-3.7022429;Electronics Store
Sol;40.41732067395507;-3.704462725129166;TAKOS;40.418938;-3.703748;Mexican Restaurant
Sol;40.41732067395507;-3.704462725129166;Rosi La Loca;40.415821011717526;-3.7029546044326276;Tapas Restaurant
Sol;40.41732067395507;-3.704462725129166;SunGate Hostel;40.41869565648317;-3.7046225150264593;Hostel
Sol;40.41732067395507;-3.704462725129166;Hotel Liabeny;40.418742456171096;-3.7039962765426564;Hotel
Sol;40.41732067395507;-3.704462725129166;Casa Labra;40.41715;-3.7045143;Tapas Restaurant
Sol;40.41732067395507;-3.704462725129166;Parrilla el Gaucho;40.4182750563455;-3.7031633176773657;Argentinian Restaurant
Sol;40.41732067395507;-3.704462725129166;Museo del Jamón;40.416343036500216;-3.7056822482813363;Spanish Restaurant
Sol;40.41732067395507;-3.704462725129166;Ale-Hop;40.4163863111747;-3.706014321913757;Gift Shop
Sol;40.41732067395507;-3.704462725129166;Myst Gym Club;40.41647661391564;-3.7053298415720475;Gym
Sol;40.41732067395507;-3.704462725129166;La Mallorquina;40.416651463931025;-3.7046623706905586;Pastry Shop
Sol;40.41732067395507;-3.704462725129166;La Pulpería de Victoria;40.416506381;-3.70170887;Seafood Restaurant
Sol;40.41732067395507;-3.704462725129166;Fnac;40.41917587046351;-3.705268692635151;Electronics Store
Sol;40.41732067395507;-3.704462725129166;Bacoa;40.416697729325435;-3.7016824585888597;Burger Joint
Sol;40.41732067395507;-3.704462725129166;Trattoria Malatesta;40.416788;-3.707182;Italian Restaurant
Sol;40.41732067395507;-3.704462725129166;Chocolatería San Ginés;40.416754336997364;-3.7070788402276738;Chocolate Shop
Sol;40.41732067395507;-3.704462725129166;Gourmet Experience;40.41966660972929;-3.7054582485281027;Gourmet Shop
Sol;40.41732067395507;-3.704462725129166;B&B Puerta del Sol;40.41762325876947;-3.702378005673006;Hotel
Sol;40.41732067395507;-3.704462725129166;Taberna Malaspina;40.415766581101096;-3.702643769694344;Tapas Restaurant
Sol;40.41732067395507;-3.704462725129166;Serafina;40.41642972263389;-3.7022844736145575;Restaurant
Sol;40.41732067395507;-3.704462725129166;La Central de Callao;40.41937153198512;-3.706036221579081;Bookstore
Sol;40.41732067395507;-3.704462725129166;Plaza Santa Cruz;40.415063266025314;-3.705661389771447;Plaza
Sol;40.41732067395507;-3.704462725129166;Monasterio de las Descalzas Reales;40.41821556333516;-3.7065309847742736;Church
Sol;40.41732067395507;-3.704462725129166;Plaza Mayor;40.415526598647354;-3.7075061894121037;Plaza
Sol;40.41732067395507;-3.704462725129166;Churrería Los Artesanos 1902;40.41758135061494;-3.7070293825992406;Coffee Shop
Sol;40.41732067395507;-3.704462725129166;Kilómetro 0;40.41683089969355;-3.7038402596454585;Historic Site
Sol;40.41732067395507;-3.704462725129166;Casa del Libro;40.418015134167284;-3.7055755133448622;Bookstore
Sol;40.41732067395507;-3.704462725129166;Museo del Jamón;40.41665890338383;-3.7015152430287395;Tapas Restaurant
Sol;40.41732067395507;-3.704462725129166;Hotel Petit Palace Tres Cruces;40.41940183436987;-3.7028119210089225;Hotel
Sol;40.41732067395507;-3.704462725129166;El Jardín Secreto de SB;40.419106710663684;-3.7023069232360086;Café
Sol;40.41732067395507;-3.704462725129166;InClan Brutal Bar;40.41502338061646;-3.7018643661445174;Tapas Restaurant
Sol;40.41732067395507;-3.704462725129166;Plaza del Callao;40.42014480521912;-3.705762832193117;Plaza
Sol;40.41732067395507;-3.704462725129166;Baton Rouge Madrid;40.41582561219427;-3.7016665688252477;Cocktail Bar
Sol;40.41732067395507;-3.704462725129166;Smöoy;40.41898853814746;-3.7020862697678543;Frozen Yogurt Shop
Sol;40.41732067395507;-3.704462725129166;Zara;40.415755053855534;-3.70325774218464;Clothing Store
Sol;40.41732067395507;-3.704462725129166;Taberna del Chato;40.414844515186154;-3.702683456732465;Spanish Restaurant
Sol;40.41732067395507;-3.704462725129166;Hammam Al Ándalus Madrid - Baños Árabes;40.41445688173982;-3.7043183592944473;Spa
Sol;40.41732067395507;-3.704462725129166;Salvador Bachiller;40.419068386780246;-3.702090366521614;Accessories Store
Sol;40.41732067395507;-3.704462725129166;La Violeta;40.416477;-3.700671;Dessert Shop
Sol;40.41732067395507;-3.704462725129166;En Busca del Tiempo;40.415625674100674;-3.702600895741347;Spanish Restaurant
Sol;40.41732067395507;-3.704462725129166;Torrons Vicens: Artesa D' Agramunt;40.41609478587808;-3.7081185796186933;Pastry Shop
Sol;40.41732067395507;-3.704462725129166;Cerveceria Erte;40.41924121529476;-3.707470367575049;Bar
Sol;40.41732067395507;-3.704462725129166;El Corte Inglés;40.41753785328389;-3.7048925169539415;Department Store
Sol;40.41732067395507;-3.704462725129166;La Tagliatella;40.41973334799455;-3.706735265471105;Italian Restaurant
Sol;40.41732067395507;-3.704462725129166;Casa del Libro;40.42010059527963;-3.703192985614225;Bookstore
Sol;40.41732067395507;-3.704462725129166;Pastelería El Riojano;40.416450788814984;-3.7059099817327517;Dessert Shop
Sol;40.41732067395507;-3.704462725129166;Hyatt Centric Gran Via Madrid;40.4200303054744;-3.703703930658583;Hotel
Imperial;40.40619860546602;-3.7182692939262676;Spa Los Nogales;40.40539932921744;-3.71723643446531;Spa
Imperial;40.40619860546602;-3.7182692939262676;Madrid Río (Sector Norte);40.408790667048855;-3.7229919433593746;Park
Imperial;40.40619860546602;-3.7182692939262676;Estadio Vicente Calderón;40.40207114826669;-3.7203824648295067;Soccer Stadium
Imperial;40.40619860546602;-3.7182692939262676;El Camarote;40.40839;-3.7162416;Coffee Shop
Imperial;40.40619860546602;-3.7182692939262676;Arroceria Imperial;40.404255;-3.715239;Mediterranean Restaurant
Imperial;40.40619860546602;-3.7182692939262676;Domino's Pizza;40.40558977984799;-3.716412178764935;Pizza Place
Imperial;40.40619860546602;-3.7182692939262676;Sportoday Fitness Center;40.40505369473396;-3.716360846264108;Gym
Imperial;40.40619860546602;-3.7182692939262676;NH Ribera del Manzanares;40.40631826368248;-3.7217145991148537;Hotel
Imperial;40.40619860546602;-3.7182692939262676;basic-fit puerta de toledo;40.40368559023189;-3.713484440439927;Gym / Fitness Center
Imperial;40.40619860546602;-3.7182692939262676;Montepinos;40.403596350870764;-3.7136552084797287;Spanish Restaurant
Imperial;40.40619860546602;-3.7182692939262676;Parque de La Cornisa;40.40932557387759;-3.7149085654101484;Park
Imperial;40.40619860546602;-3.7182692939262676;Cerveceria Ruyma;40.404255611015216;-3.717923923929534;Tapas Restaurant
Imperial;40.40619860546602;-3.7182692939262676;Centro Deportivo Municipal Marqués de Samaranch;40.407577055637205;-3.7172002632398424;Gym / Fitness Center
Imperial;40.40619860546602;-3.7182692939262676;Supercor;40.40761926220015;-3.7168262208182865;Grocery Store
Imperial;40.40619860546602;-3.7182692939262676;La Herradura;40.40857850865012;-3.717496643019891;Spanish Restaurant
Imperial;40.40619860546602;-3.7182692939262676;Madrid Río Café Andorra;40.40730825454089;-3.722514785198101;Beer Garden
Imperial;40.40619860546602;-3.7182692939262676;Los Tronquitos;40.409952111488224;-3.7195663426169174;Spanish Restaurant
Imperial;40.40619860546602;-3.7182692939262676;Colby Cafe;40.40713184312889;-3.716759168580845;Café
Imperial;40.40619860546602;-3.7182692939262676;1903;40.40243028806627;-3.719776461069885;Bar
Imperial;40.40619860546602;-3.7182692939262676;La Casa De Zhou;40.40515740677846;-3.7163080930525005;Chinese Restaurant
Imperial;40.40619860546602;-3.7182692939262676;El Parador Cervecería;40.401946443852935;-3.718670904636383;Brewery
Acacias;40.40107611530032;-3.7071663117765565;La Gelateria di Angelo;40.3979513751972;-3.707739165816791;Ice Cream Shop
Acacias;40.40107611530032;-3.7071663117765565;Parque de la Arganzuela;40.39833018704864;-3.7086856350423827;Park
Acacias;40.40107611530032;-3.7071663117765565;Restaurante Peruano Mis Tradiciones;40.39981626548801;-3.71102238694507;Peruvian Restaurant
Acacias;40.40107611530032;-3.7071663117765565;Le Crust Pizza Bar;40.400922;-3.70989;Pizza Place
Acacias;40.40107611530032;-3.7071663117765565;sushi raku;40.404623;-3.708216;Sushi Restaurant
Acacias;40.40107611530032;-3.7071663117765565;Café Ziryab;40.40224373821232;-3.705137469839676;Pub
Acacias;40.40107611530032;-3.7071663117765565;AltaFit Puerta de Toledo;40.40511457737344;-3.7076489386093074;Gym / Fitness Center
Acacias;40.40107611530032;-3.7071663117765565;Sala Cuarta Pared;40.40268640431053;-3.7026998623030054;Indie Theater
Acacias;40.40107611530032;-3.7071663117765565;Toboganes Parque de la Arganzuela;40.3980264856808;-3.710240618240615;Playground
Acacias;40.40107611530032;-3.7071663117765565;Pryce Cafe;40.401935;-3.708241;Bar
Acacias;40.40107611530032;-3.7071663117765565;Lounge Yi;40.40252059283469;-3.7100599453887906;Asian Restaurant
Acacias;40.40107611530032;-3.7071663117765565;Artistic Metropol;40.405066714173635;-3.7073484351855797;Indie Movie Theater
Acacias;40.40107611530032;-3.7071663117765565;El Mono-Araña Comics;40.4033084842583;-3.704095640521681;Bookstore
Acacias;40.40107611530032;-3.7071663117765565;Teatro Encantado;40.39858945822635;-3.7038999495188074;Indie Theater
Acacias;40.40107611530032;-3.7071663117765565;Urban Box Crossfit;40.40279297352163;-3.701903826112441;Gym
Acacias;40.40107611530032;-3.7071663117765565;Chesscafe;40.403899576795055;-3.706681139020073;Café
Acacias;40.40107611530032;-3.7071663117765565;La Taberna De Mi Abuelo;40.40191135514439;-3.704978969297104;Bar
Acacias;40.40107611530032;-3.7071663117765565;Piscina Municipal Peñuelas;40.39908454746079;-3.704939795440357;Pool
Acacias;40.40107611530032;-3.7071663117765565;La Margherita;40.401253555178585;-3.7033826679956547;Pizza Place
Acacias;40.40107611530032;-3.7071663117765565;Cercanías Pirámides;40.40248604940046;-3.711201883844389;Train Station
Acacias;40.40107611530032;-3.7071663117765565;Atrapallada;40.404139730603724;-3.7057968005082103;Spanish Restaurant
Acacias;40.40107611530032;-3.7071663117765565;Carrefour Market;40.40364786304916;-3.7083148956298824;Supermarket
Acacias;40.40107611530032;-3.7071663117765565;El Guaje;40.40452858779973;-3.7045962054459918;Spanish Restaurant
Acacias;40.40107611530032;-3.7071663117765565;Parque de Peñuelas;40.400228640871305;-3.704967498779297;Park
Acacias;40.40107611530032;-3.7071663117765565;El surtidor;40.40429695609965;-3.7053099052706413;Brewery
Acacias;40.40107611530032;-3.7071663117765565;Eurobar Coppola;40.39885942944913;-3.709307787246689;Bar
Acacias;40.40107611530032;-3.7071663117765565;Restaurante Oviedo 2;40.39767059594002;-3.7063489377469625;Spanish Restaurant
Acacias;40.40107611530032;-3.7071663117765565;El 7 de Zahonero;40.40033472928856;-3.7122992730998177;Tapas Restaurant
Acacias;40.40107611530032;-3.7071663117765565;Patinódromo de Arganzuela;40.40082377459056;-3.7082232874787997;Skate Park
Acacias;40.40107611530032;-3.7071663117765565;El 9 Brasserie;40.402534687553896;-3.710841415481326;Mediterranean Restaurant
Acacias;40.40107611530032;-3.7071663117765565;Nine Fitness Sport Club;40.404509790096164;-3.7037122249603267;Gym / Fitness Center
Acacias;40.40107611530032;-3.7071663117765565;Mercadona;40.4006878686976;-3.7122534226189825;Supermarket
Acacias;40.40107611530032;-3.7071663117765565;Chocolatería Valor;40.403703969791835;-3.7071987977181333;Café
Acacias;40.40107611530032;-3.7071663117765565;Café del Teatro;40.403189033617984;-3.7028419392214444;Snack Place
Acacias;40.40107611530032;-3.7071663117765565;Mercadona;40.40505874889801;-3.7062951249739484;Supermarket
Acacias;40.40107611530032;-3.7071663117765565;Ceveceria Cabo Fisterra;40.399266;-3.7098529000000005;Spanish Restaurant
Acacias;40.40107611530032;-3.7071663117765565;La Taberna de Málaga;40.40371438956715;-3.7045378743034068;Tapas Restaurant
Acacias;40.40107611530032;-3.7071663117765565;Ginos Ribera de Curtidores;40.40459928962177;-3.7067639286717298;Italian Restaurant
Acacias;40.40107611530032;-3.7071663117765565;La Taberna Fantástica;40.40023220370225;-3.7105312124224183;Spanish Restaurant
Acacias;40.40107611530032;-3.7071663117765565;Telepizza;40.40502904857637;-3.7081938784241726;Pizza Place
Acacias;40.40107611530032;-3.7071663117765565;Holiday Inn;40.4024822;-3.711509;Hotel
Acacias;40.40107611530032;-3.7071663117765565;Alcampo;40.39892030463247;-3.702515882212579;Food & Drink Shop
Acacias;40.40107611530032;-3.7071663117765565;Café Europa;40.402718091835965;-3.7105576226096484;Breakfast Spot
Acacias;40.40107611530032;-3.7071663117765565;The Towers;40.40285751250166;-3.710746840114231;Pub
Acacias;40.40107611530032;-3.7071663117765565;Body Factory;40.40452664623662;-3.704488321271009;Gym
Acacias;40.40107611530032;-3.7071663117765565;Painting the Monkey;40.40426548028413;-3.7107961211961538;Nightclub
Acacias;40.40107611530032;-3.7071663117765565;Barco Pirata;40.3968437998685;-3.7064504783262424;Playground
Acacias;40.40107611530032;-3.7071663117765565;El Lagar De Arganzuela;40.39871991975261;-3.7039898416062798;Restaurant
Acacias;40.40107611530032;-3.7071663117765565;El Rincón De Asturias;40.401465011697624;-3.702407137711709;Spanish Restaurant
Acacias;40.40107611530032;-3.7071663117765565;Guang Dong City;40.404514015355296;-3.706822127537171;Chinese Restaurant
Chopera;40.39477005171291;-3.6989800251296083;Trattoria In Crescendo;40.39458232012004;-3.6983880942169574;Italian Restaurant
Chopera;40.39477005171291;-3.6989800251296083;Go Hyang Mat;40.39651209507304;-3.699201240629983;Korean Restaurant
Chopera;40.39477005171291;-3.6989800251296083;Matadero Madrid;40.39227020881504;-3.697500228881836;Art Gallery
Chopera;40.39477005171291;-3.6989800251296083;Madrid Río (Sector Sur);40.39450912360116;-3.7026071548461914;Park
Chopera;40.39477005171291;-3.6989800251296083;Palacio de Cristal de la Arganzuela (Invernadero);40.39377059552116;-3.7002269419528067;Garden
Chopera;40.39477005171291;-3.6989800251296083;Central de Diseño / DIMAD;40.392015380873275;-3.6968269050224034;Art Museum
Chopera;40.39477005171291;-3.6989800251296083;Las tinajas;40.3969930879287;-3.6977791786193848;Tapas Restaurant
Chopera;40.39477005171291;-3.6989800251296083;Centro Cultural Casa del Reloj;40.393534042434744;-3.6992756132369147;Art Gallery
Chopera;40.39477005171291;-3.6989800251296083;Nave 16;40.39164509705048;-3.6990612745285034;Performing Arts Venue
Chopera;40.39477005171291;-3.6989800251296083;HiFitness;40.39745815458322;-3.7013076927979083;Gym
Chopera;40.39477005171291;-3.6989800251296083;Plaza Matadero;40.392072;-3.698374;Plaza
Chopera;40.39477005171291;-3.6989800251296083;Cineteca;40.39151543201484;-3.6965212884161835;Indie Movie Theater
Chopera;40.39477005171291;-3.6989800251296083;Madrid Río (Legazpi);40.39109680713345;-3.700771982087698;Park
Chopera;40.39477005171291;-3.6989800251296083;Costello Río;40.393869542662;-3.6979571709519425;Burger Joint
Chopera;40.39477005171291;-3.6989800251296083;Mercado de Productores;40.39164324659804;-3.698183214253617;Farmers Market
Chopera;40.39477005171291;-3.6989800251296083;Nave de Música;40.39112678873239;-3.6981999136788786;Music Venue
Chopera;40.39477005171291;-3.6989800251296083;Tres Cerditos;40.397316;-3.694184;Chinese Restaurant
Chopera;40.39477005171291;-3.6989800251296083;Salón de Té Al Yabal;40.399014788020274;-3.700249151555845;Cocktail Bar
Chopera;40.39477005171291;-3.6989800251296083;Starbucks;40.39130385405477;-3.701122858987979;Coffee Shop
Chopera;40.39477005171291;-3.6989800251296083;Cantina Matadero;40.39160076391137;-3.6961034751162334;Argentinian Restaurant
Chopera;40.39477005171291;-3.6989800251296083;Dunkin Coffee;40.391625;-3.701652;Coffee Shop
Chopera;40.39477005171291;-3.6989800251296083;Cafetería La Perla;40.397367166955874;-3.6967451549952464;Café
Chopera;40.39477005171291;-3.6989800251296083;Cerveceria Viñas;40.39424239845131;-3.6952475289124664;Bar
Chopera;40.39477005171291;-3.6989800251296083;Skatepark Madrid Río;40.39550492306718;-3.7032296905112068;Skate Park
Chopera;40.39477005171291;-3.6989800251296083;Peña Atletica Legazpi;40.393549;-3.6978188000000003;Spanish Restaurant
Chopera;40.39477005171291;-3.6989800251296083;Mercado de Diseño;40.39089389119235;-3.6974275101347676;Flea Market
Chopera;40.39477005171291;-3.6989800251296083;Casa Maxi;40.39827157610671;-3.6978147969573913;Restaurant
Chopera;40.39477005171291;-3.6989800251296083;Mercado Guillermo de Osma;40.39504552361707;-3.696059268318678;Market
Chopera;40.39477005171291;-3.6989800251296083;C.C. Plaza Río 2;40.390881829760794;-3.701512813568115;Shopping Mall
Chopera;40.39477005171291;-3.6989800251296083;Taberna Criolla;40.39205552309037;-3.6963920073416188;BBQ Joint
Chopera;40.39477005171291;-3.6989800251296083;La Sirena;40.39549029773108;-3.694534672629032;Grocery Store
Chopera;40.39477005171291;-3.6989800251296083;venezzia;40.39627129215588;-3.69453564924098;Ice Cream Shop
Chopera;40.39477005171291;-3.6989800251296083;Five Guys;40.390582;-3.701017;Burger Joint
Chopera;40.39477005171291;-3.6989800251296083;Venta Matadero;40.393420480139476;-3.697964462608842;Mediterranean Restaurant
Chopera;40.39477005171291;-3.6989800251296083;La Tagliatella;40.390959;-3.701159;Italian Restaurant
Chopera;40.39477005171291;-3.6989800251296083;Universo Kebab;40.398919685052654;-3.698092146825315;Falafel Restaurant
Chopera;40.39477005171291;-3.6989800251296083;Taberna La Peseta;40.39638844715558;-3.698015213012695;Tapas Restaurant
Chopera;40.39477005171291;-3.6989800251296083;Terraza Matadero;40.39207423699941;-3.6980935114445077;Beer Garden
Chopera;40.39477005171291;-3.6989800251296083;Fnac;40.390647;-3.701272;Electronics Store
Chopera;40.39477005171291;-3.6989800251296083;superSol;40.398661284979376;-3.696465975895925;Grocery Store
Chopera;40.39477005171291;-3.6989800251296083;Alcampo;40.390977702445745;-3.7016797347689314;Big Box Store
Chopera;40.39477005171291;-3.6989800251296083;La Flor de Asturias;40.39265334669799;-3.694732274349267;Spanish Restaurant
Chopera;40.39477005171291;-3.6989800251296083;Plaza de Legazpi;40.391600050854805;-3.6948689637786174;Plaza
Chopera;40.39477005171291;-3.6989800251296083;Pienso Express;40.39698235200662;-3.7031850939323796;Pet Store
Chopera;40.39477005171291;-3.6989800251296083;wagamama plaza río 2;40.390616188838514;-3.7005546732303816;Asian Restaurant
Chopera;40.39477005171291;-3.6989800251296083;Hamburguesa Nostra;40.391134;-3.701446;Restaurant
Chopera;40.39477005171291;-3.6989800251296083;Cervecería Dueñas Marisquería;40.39187547506559;-3.6948164982940406;Seafood Restaurant
Legazpi;40.388845512193214;-3.687060895243508;Parque de Enrique Tierno Galván;40.391011807973285;-3.682887554168701;Park
Legazpi;40.388845512193214;-3.687060895243508;Anfiteatro Romano (Auditorio del Parque Enrique Tierno Galván);40.39025185321955;-3.683799505233765;Theater
Legazpi;40.388845512193214;-3.687060895243508;La Cervecera de Embajadores;40.389973;-3.692054;Bar
Legazpi;40.388845512193214;-3.687060895243508;Macarena Madrid;40.3906324;-3.6912615999999616;Spanish Restaurant
Legazpi;40.388845512193214;-3.687060895243508;Dehesa de Solana;40.3901235184674;-3.6908584057955642;Spanish Restaurant
Legazpi;40.388845512193214;-3.687060895243508;AhorraMas;40.39038252997779;-3.689287507662326;Supermarket
Legazpi;40.388845512193214;-3.687060895243508;Divino Tinto;40.39173070375447;-3.6913368381784597;Wine Bar
Legazpi;40.388845512193214;-3.687060895243508;La Madreña;40.39238583380752;-3.6884136888569974;Restaurant
Legazpi;40.388845512193214;-3.687060895243508;Sanpas Cafetería Restaurante;40.390763326656064;-3.6889121379757834;Coffee Shop
Legazpi;40.388845512193214;-3.687060895243508;Cervecería Cruz Blanca;40.389637490776856;-3.6879834197777455;Bar
Legazpi;40.388845512193214;-3.687060895243508;Cafetería La Reja;40.38985719983775;-3.692590494272926;Café
Legazpi;40.388845512193214;-3.687060895243508;Mercadona;40.38630457090209;-3.690939566631501;Supermarket
Legazpi;40.388845512193214;-3.687060895243508;Cantina Canalla;40.390667;-3.6889536;Mexican Restaurant
Legazpi;40.388845512193214;-3.687060895243508;Planetario de Madrid;40.39274675183287;-3.6851182058179646;Planetarium
Legazpi;40.388845512193214;-3.687060895243508;Bar Cafetería Jamonal;40.38982254961084;-3.692293795236815;Bar
Legazpi;40.388845512193214;-3.687060895243508;Mattiz Dulce&Salado;40.390766591488386;-3.6917150471626266;Dessert Shop
Legazpi;40.388845512193214;-3.687060895243508;Runaways;40.388339671065594;-3.690869808197022;Bistro
Legazpi;40.388845512193214;-3.687060895243508;Trending Tapas;40.38869706811601;-3.691426743931729;Tapas Restaurant
Legazpi;40.388845512193214;-3.687060895243508;Simply Market;40.389295693532546;-3.692111642670164;Supermarket
Delicias;40.39674273523607;-3.6898646966327404;Magasand Deli;40.3968106509602;-3.691293344345652;Restaurant
Delicias;40.39674273523607;-3.6898646966327404;Mercado de Motores;40.399148967924575;-3.6919777332175228;Flea Market
Delicias;40.39674273523607;-3.6898646966327404;Tres Cerditos;40.397316;-3.694184;Chinese Restaurant
Delicias;40.39674273523607;-3.6898646966327404;Museo del Ferrocarril (Antigua Estación de Delicias);40.39939525573866;-3.6922860145568843;Museum
Delicias;40.39674273523607;-3.6898646966327404;Bbig Delice Café;40.396134;-3.693258;Coffee Shop
Delicias;40.39674273523607;-3.6898646966327404;PanArte;40.39927880931651;-3.6941818094707313;Bakery
Delicias;40.39674273523607;-3.6898646966327404;Mesón Las Regiones;40.39743429354975;-3.693263626174372;Mediterranean Restaurant
Delicias;40.39674273523607;-3.6898646966327404;venezzia;40.39627129215588;-3.69453564924098;Ice Cream Shop
Delicias;40.39674273523607;-3.6898646966327404;Museo Nacional de Ciencia y Tecnología;40.399244590060285;-3.6916976518757814;Science Museum
Delicias;40.39674273523607;-3.6898646966327404;Centro Deportivo Municipal Arganzuela;40.39450203103769;-3.6914544054497034;Gym / Fitness Center
Delicias;40.39674273523607;-3.6898646966327404;La Sirena;40.39549029773108;-3.694534672629032;Grocery Store
Delicias;40.39674273523607;-3.6898646966327404;MARIANA Café - Bar & After Work;40.398115944947065;-3.686270290653032;Breakfast Spot
Delicias;40.39674273523607;-3.6898646966327404;La Madreña;40.39238583380752;-3.6884136888569974;Restaurant
Delicias;40.39674273523607;-3.6898646966327404;Granier;40.398027453759646;-3.6943201486393016;Bakery
Delicias;40.39674273523607;-3.6898646966327404;Frutería M. Villaverde;40.393184318745284;-3.690243600584704;Farmers Market
Delicias;40.39674273523607;-3.6898646966327404;The Names Coffee & Art;40.39632587179921;-3.6848186014877955;Mediterranean Restaurant
Delicias;40.39674273523607;-3.6898646966327404;Bliss;40.396308318242525;-3.684886420540497;Bar
Delicias;40.39674273523607;-3.6898646966327404;Plaza Beata María Ana de Jesús;40.39438650684616;-3.694737228695079;Plaza
Delicias;40.39674273523607;-3.6898646966327404;superSol;40.392899343397644;-3.6908262390589637;Grocery Store
Delicias;40.39674273523607;-3.6898646966327404;Jamaica Coffee Shop;40.397377409206825;-3.6945935528635743;Snack Place
Delicias;40.39674273523607;-3.6898646966327404;Cercanías Delicias;40.40012467567514;-3.6920543499194944;Train Station
Delicias;40.39674273523607;-3.6898646966327404;Mesón Restaurante Horóscopo;40.395945;-3.692729;Tapas Restaurant
Delicias;40.39674273523607;-3.6898646966327404;Comedores de RENFE;40.398683339986285;-3.6923135278649255;Food Court
Delicias;40.39674273523607;-3.6898646966327404;Restaurante Bacanal;40.39340076296527;-3.691945792513818;Spanish Restaurant
Delicias;40.39674273523607;-3.6898646966327404;The Red Corner;40.39250980896271;-3.6907457687196734;Pub
Delicias;40.39674273523607;-3.6898646966327404;Maki Mendez Alvaro;40.39631986026611;-3.684876367733728;Sushi Restaurant
Delicias;40.39674273523607;-3.6898646966327404;Domino's Pizza;40.39847730256437;-3.6942645413110493;Pizza Place
Palos de Moguer;40.403519704223754;-3.6945896373244795;Pui Thai Tapas;40.40447537896806;-3.696691614807786;Thai Restaurant
Palos de Moguer;40.403519704223754;-3.6945896373244795;Mercado de Santa María de la Cabeza;40.4028596759125;-3.6968191543147615;Farmers Market
Palos de Moguer;40.403519704223754;-3.6945896373244795;Atocha Tandoori;40.405064;-3.695337;Restaurant
Palos de Moguer;40.403519704223754;-3.6945896373244795;Cervecissimus Delicias;40.4042109326883;-3.6946579592203355;Beer Bar
Palos de Moguer;40.403519704223754;-3.6945896373244795;Bodegas Rosell;40.403802520431654;-3.6906202941279647;Spanish Restaurant
Palos de Moguer;40.403519704223754;-3.6945896373244795;Patacón Pisao;40.40406575;-3.69445362;Arepa Restaurant
Palos de Moguer;40.403519704223754;-3.6945896373244795;SanMan Tattoo Parlor;40.4033;-3.693695;Tattoo Parlor
Palos de Moguer;40.403519704223754;-3.6945896373244795;Basic-Fit Delicias;40.404224692468674;-3.6938335552191073;Gym
Palos de Moguer;40.403519704223754;-3.6945896373244795;Havana Blues;40.40205019041982;-3.698488323598797;Cuban Restaurant
Palos de Moguer;40.403519704223754;-3.6945896373244795;Teatro Circo Price;40.40564814773116;-3.6983798611933194;Circus
Palos de Moguer;40.403519704223754;-3.6945896373244795;Pandora's Vox;40.40560029956408;-3.691992411052368;Music Venue
Palos de Moguer;40.403519704223754;-3.6945896373244795;El Puchero de mi Abuela;40.40307361149854;-3.6959510580409547;Restaurant
Palos de Moguer;40.403519704223754;-3.6945896373244795;El Rosario;40.403587409155726;-3.690663146616292;Restaurant
Palos de Moguer;40.403519704223754;-3.6945896373244795;La Ria de Cedeira;40.40479857603754;-3.69431170733005;Snack Place
Palos de Moguer;40.403519704223754;-3.6945896373244795;Museo Reina Sofia - Jardines;40.407676;-3.694552;Garden
Palos de Moguer;40.403519704223754;-3.6945896373244795;Nave 73;40.40307329365215;-3.698809762633439;Indie Theater
Palos de Moguer;40.403519704223754;-3.6945896373244795;Hnos. Valdivieso;40.40489280033798;-3.6987125918439054;Breakfast Spot
Palos de Moguer;40.403519704223754;-3.6945896373244795;Lidl;40.40530060597466;-3.699181772633352;Market
Palos de Moguer;40.403519704223754;-3.6945896373244795;Lidl;40.40340668175699;-3.692944149751875;Grocery Store
Palos de Moguer;40.403519704223754;-3.6945896373244795;El Roble;40.40365450256522;-3.698037381266093;Restaurant
Palos de Moguer;40.403519704223754;-3.6945896373244795;La Canibal;40.40757;-3.696498;Brewery
Palos de Moguer;40.403519704223754;-3.6945896373244795;El Rincón Asturiano II;40.403992909;-3.692392092;Spanish Restaurant
Palos de Moguer;40.403519704223754;-3.6945896373244795;Hong Restaurante;40.40509619071254;-3.6972863118433046;Asian Restaurant
Palos de Moguer;40.403519704223754;-3.6945896373244795;La Libre;40.407742;-3.696379;Breakfast Spot
Palos de Moguer;40.403519704223754;-3.6945896373244795;Museo del Ferrocarril (Antigua Estación de Delicias);40.39939525573866;-3.6922860145568843;Museum
Palos de Moguer;40.403519704223754;-3.6945896373244795;El Quinto Pecado;40.40002813583826;-3.6944457202941674;Gastropub
Palos de Moguer;40.403519704223754;-3.6945896373244795;Bululu2120;40.40156899688512;-3.696367234904229;Trade School
Palos de Moguer;40.403519704223754;-3.6945896373244795;Jardín Tropical - Invernadero de Atocha;40.40686603137388;-3.6912039051780843;Garden
Palos de Moguer;40.403519704223754;-3.6945896373244795;Edificio Nouvel;40.407362;-3.694678;Art Museum
Palos de Moguer;40.403519704223754;-3.6945896373244795;AhorraMas;40.40348123525293;-3.693140129363134;Grocery Store
Palos de Moguer;40.403519704223754;-3.6945896373244795;Pupusería Río Grande Café;40.406202;-3.69468;Salvadoran Restaurant
Palos de Moguer;40.403519704223754;-3.6945896373244795;AC Hotel by Marriott Carlton Madrid;40.405122830202586;-3.6937020613422646;Hotel
Palos de Moguer;40.403519704223754;-3.6945896373244795;La Taberna del tio Inda;40.40322373751854;-3.6962844763743923;Spanish Restaurant
Palos de Moguer;40.403519704223754;-3.6945896373244795;La Gatoteca;40.407530770267684;-3.6960910219228604;Pet Café
Palos de Moguer;40.403519704223754;-3.6945896373244795;Nubel;40.40726628533323;-3.6950730087326713;Molecular Gastronomy Restaurant
Palos de Moguer;40.403519704223754;-3.6945896373244795;McFit;40.4025448724172;-3.6981736588954846;Gym / Fitness Center
Palos de Moguer;40.403519704223754;-3.6945896373244795;Garaje Lumiere;40.40004725866401;-3.695004601694602;Movie Theater
Palos de Moguer;40.403519704223754;-3.6945896373244795;AS, FONTES;40.404322737414816;-3.6906389337409338;Restaurant
Palos de Moguer;40.403519704223754;-3.6945896373244795;O Pazo de Lugo;40.407589;-3.696473;Spanish Restaurant
Palos de Moguer;40.403519704223754;-3.6945896373244795;Restautante Bar Villa De Vigo;40.40592284037594;-3.69463814187106;Restaurant
Palos de Moguer;40.403519704223754;-3.6945896373244795;Estación de Madrid-Puerta de Atocha;40.4065538180545;-3.6907293215338433;Train Station
Palos de Moguer;40.403519704223754;-3.6945896373244795;La Central del MNCARS;40.40739077330377;-3.6945949677954455;Bookstore
Palos de Moguer;40.403519704223754;-3.6945896373244795;El Rincón Asturiano;40.402836280139326;-3.689974503075221;Tapas Restaurant
Palos de Moguer;40.403519704223754;-3.6945896373244795;Rodilla;40.406133;-3.690601;Sandwich Place
Palos de Moguer;40.403519704223754;-3.6945896373244795;PanArte;40.39927880931651;-3.6941818094707313;Bakery
Palos de Moguer;40.403519704223754;-3.6945896373244795;Sala Caracol;40.40387211812955;-3.700126025936046;Concert Hall
Palos de Moguer;40.403519704223754;-3.6945896373244795;Supercor Expres;40.40453782414398;-3.6936169012986233;Grocery Store
Palos de Moguer;40.403519704223754;-3.6945896373244795;Mundo Kebab;40.40291229498018;-3.6918291111629657;Falafel Restaurant
Palos de Moguer;40.403519704223754;-3.6945896373244795;Restaurante Buen Gusto;40.401765584257205;-3.6989609936941843;Chinese Restaurant
Palos de Moguer;40.403519704223754;-3.6945896373244795;Terraza Mahou Reina Sofia;40.40785108079251;-3.693364380617272;Beer Garden
Atocha;40.3997106367066;-3.68185388833621;La Cevicucheria;40.40267859397597;-3.680336090781132;Peruvian Restaurant
Atocha;40.3997106367066;-3.68185388833621;Restaurante Sur;40.39623084267859;-3.6811413584842265;Asian Restaurant
Atocha;40.3997106367066;-3.68185388833621;El Caldero;40.402563337193996;-3.6806634245088032;Restaurant
Atocha;40.3997106367066;-3.68185388833621;Candela Pinchos & Drinks;40.40252382311442;-3.679897897273802;Spanish Restaurant
Atocha;40.3997106367066;-3.68185388833621;L'Officina;40.39733109159207;-3.6832414038732795;Italian Restaurant
Atocha;40.3997106367066;-3.68185388833621;la esquina de tellez;40.40275639838298;-3.6805993182043046;Restaurant
Atocha;40.3997106367066;-3.68185388833621;Domino's Pizza;40.40218756346087;-3.6782518527083377;Pizza Place
Atocha;40.3997106367066;-3.68185388833621;MARIANA Café - Bar & After Work;40.398115944947065;-3.686270290653032;Breakfast Spot
Atocha;40.3997106367066;-3.68185388833621;Centro Supera 24h;40.40322293830854;-3.6792732041673433;Gymnastics Gym
Atocha;40.3997106367066;-3.68185388833621;Centro Deportivo Municipal Daoiz y Velarde;40.40129807435989;-3.6776377178351773;Athletics & Sports
Atocha;40.3997106367066;-3.68185388833621;The Names Coffee & Art;40.39632587179921;-3.6848186014877955;Mediterranean Restaurant
Atocha;40.3997106367066;-3.68185388833621;Paquita;40.397025285519405;-3.6836214511785017;Restaurant
Atocha;40.3997106367066;-3.68185388833621;Chino Sur;40.39618894598507;-3.681182571154631;Chinese Restaurant
Atocha;40.3997106367066;-3.68185388833621;Cervecería Cruz Blanca;40.403835663044305;-3.6811743440783182;Tapas Restaurant
Atocha;40.3997106367066;-3.68185388833621;Restaurante Chino Jin Yuan;40.40317599898042;-3.6814112813846984;Asian Restaurant
Atocha;40.3997106367066;-3.68185388833621;Café Del Comercio;40.40383352948762;-3.681169561796422;Café
Atocha;40.3997106367066;-3.68185388833621;Alquitara;40.401919944650956;-3.6782523959956626;Bar
Atocha;40.3997106367066;-3.68185388833621;Bliss;40.396308318242525;-3.684886420540497;Bar
Atocha;40.3997106367066;-3.68185388833621;Monte Pinos;40.40265272582209;-3.6775457204640265;Café
Atocha;40.3997106367066;-3.68185388833621;Cervesia;40.40271965470567;-3.6805571927033043;Spanish Restaurant
Atocha;40.3997106367066;-3.68185388833621;Plaza del Amanecer;40.398883751011226;-3.684742166995682;Plaza
Atocha;40.3997106367066;-3.68185388833621;Anden 10;40.40183949924626;-3.6837447296026142;Platform
Atocha;40.3997106367066;-3.68185388833621;Rafaelhoteles Atocha;40.401461770888;-3.6870829022993616;Hotel
Atocha;40.3997106367066;-3.68185388833621;Granier;40.404111176357304;-3.6811294711873312;Bakery
Atocha;40.3997106367066;-3.68185388833621;Puesto De Churros;40.40224142984646;-3.683913141032498;Food Truck
Atocha;40.3997106367066;-3.68185388833621;Maki Mendez Alvaro;40.39631986026611;-3.684876367733728;Sushi Restaurant
Atocha;40.3997106367066;-3.68185388833621;Farmacia;40.396350098605986;-3.6848430718282237;Pharmacy
Atocha;40.3997106367066;-3.68185388833621;La Isla Del Planetario;40.39630537268651;-3.6848641808154396;Restaurant
Pacífico;40.40436452923719;-3.6786387363233;El Rincón de Fogg;40.404065;-3.677902;Burger Joint
Pacífico;40.40436452923719;-3.6786387363233;La Polonesa;40.40420810233003;-3.679567363531214;Polish Restaurant
Pacífico;40.40436452923719;-3.6786387363233;Sidreria Astur II;40.405341122160486;-3.677504335030711;Spanish Restaurant
Pacífico;40.40436452923719;-3.6786387363233;La Cevicucheria;40.40267859397597;-3.680336090781132;Peruvian Restaurant
Pacífico;40.40436452923719;-3.6786387363233;Libreria La Lumbre;40.402952;-3.675351;Bookstore
Pacífico;40.40436452923719;-3.6786387363233;Mercado de Pacífico;40.40429642327305;-3.675518857611284;Farmers Market
Pacífico;40.40436452923719;-3.6786387363233;Bodegas Casas;40.4044366905829;-3.6811907007744087;Bar
Pacífico;40.40436452923719;-3.6786387363233;EFTI;40.40640739316449;-3.6813028269806267;Art Gallery
Pacífico;40.40436452923719;-3.6786387363233;Taberna Griega;40.4037412;-3.6779324;Greek Restaurant
Pacífico;40.40436452923719;-3.6786387363233;Real Fábrica de Tapices;40.40620151202923;-3.682074132463649;Museum
Pacífico;40.40436452923719;-3.6786387363233;Don Giovanni;40.407648;-3.680188;Italian Restaurant
Pacífico;40.40436452923719;-3.6786387363233;Mesón Restaurante  El Segoviano;40.405017519;-3.683326516;Spanish Restaurant
Pacífico;40.40436452923719;-3.6786387363233;La Neomudéjar;40.404717361134956;-3.683918319750764;Museum
Pacífico;40.40436452923719;-3.6786387363233;Retiro Sport Fitness;40.40390028979764;-3.678109811193597;Gym
Pacífico;40.40436452923719;-3.6786387363233;Confitería Repostería América II;40.406664062602424;-3.679332974705517;Dessert Shop
Pacífico;40.40436452923719;-3.6786387363233;Rincon De Extremadura;40.40701655752132;-3.6782717844959585;Spanish Restaurant
Pacífico;40.40436452923719;-3.6786387363233;Nave de Motores Metro de Madrid;40.40432485482223;-3.6739338388682916;Museum
Pacífico;40.40436452923719;-3.6786387363233;Mezcal;40.406796;-3.677795;Mexican Restaurant
Pacífico;40.40436452923719;-3.6786387363233;ESPUMA - Tienda de cervezas;40.40456697917805;-3.677619695663452;Food & Drink Shop
Pacífico;40.40436452923719;-3.6786387363233;Panadería Pastelería Los Canasteros;40.405196136188856;-3.67427691753023;Bakery
Pacífico;40.40436452923719;-3.6786387363233;Panadería San Miguel;40.40419147175538;-3.6760627931712793;Bakery
Pacífico;40.40436452923719;-3.6786387363233;Mi casita;40.40522060049711;-3.6814557401710992;Bar
Pacífico;40.40436452923719;-3.6786387363233;Doner kebab madrid;40.40634318241905;-3.6765283318278335;Indian Restaurant
Pacífico;40.40436452923719;-3.6786387363233;El Caldero;40.402563337193996;-3.6806634245088032;Restaurant
Pacífico;40.40436452923719;-3.6786387363233;La Pentola Magica;40.405021;-3.682701;Italian Restaurant
Pacífico;40.40436452923719;-3.6786387363233;Candela Pinchos & Drinks;40.40252382311442;-3.679897897273802;Spanish Restaurant
Pacífico;40.40436452923719;-3.6786387363233;la Sirena;40.40732563876005;-3.6771275953506923;Grocery Store
Pacífico;40.40436452923719;-3.6786387363233;La Esquina De Daniel;40.40548627267817;-3.6812713493009697;Brewery
Pacífico;40.40436452923719;-3.6786387363233;Domino's Pizza;40.40218756346087;-3.6782518527083377;Pizza Place
Pacífico;40.40436452923719;-3.6786387363233;Centro Supera 24h;40.40322293830854;-3.6792732041673433;Gymnastics Gym
Pacífico;40.40436452923719;-3.6786387363233;La Tasquita;40.40513107580944;-3.676929007792;Spanish Restaurant
Pacífico;40.40436452923719;-3.6786387363233;Twin Pizza;40.407205021771155;-3.674529519777039;Pizza Place
Pacífico;40.40436452923719;-3.6786387363233;Unonueve;40.40494879009213;-3.6812520487858844;Art Gallery
Pacífico;40.40436452923719;-3.6786387363233;Panaria;40.405007582443936;-3.6827441791489615;Bakery
Pacífico;40.40436452923719;-3.6786387363233;la esquina de tellez;40.40275639838298;-3.6805993182043046;Restaurant
Pacífico;40.40436452923719;-3.6786387363233;Tiger;40.40144628669691;-3.6748376032464813;Gift Shop
Pacífico;40.40436452923719;-3.6786387363233;10 heladeria;40.4074252522954;-3.676889870127283;Ice Cream Shop
Pacífico;40.40436452923719;-3.6786387363233;Venta La Reina;40.40727107976985;-3.6806676777616856;Spanish Restaurant
Pacífico;40.40436452923719;-3.6786387363233;Restaurante La Dehesa Castellana II;40.407362316808936;-3.6766843048559124;Restaurant
Pacífico;40.40436452923719;-3.6786387363233;Cervecería Cruz Blanca;40.403835663044305;-3.6811743440783182;Tapas Restaurant
Pacífico;40.40436452923719;-3.6786387363233;In-Gravity roller & skate shop;40.407934482252344;-3.6788560894662776;Board Shop
Pacífico;40.40436452923719;-3.6786387363233;Lidl;40.40549992134857;-3.678944909646477;Grocery Store
Pacífico;40.40436452923719;-3.6786387363233;Centro Deportivo Municipal Daoiz y Velarde;40.40129807435989;-3.6776377178351773;Athletics & Sports
Pacífico;40.40436452923719;-3.6786387363233;La Antequerana;40.403256331675344;-3.6731419204177653;Brewery
Pacífico;40.40436452923719;-3.6786387363233;Deportes Moya;40.406813654658734;-3.673768043518066;Sporting Goods Shop
Pacífico;40.40436452923719;-3.6786387363233;Ruta Las Hurdes;40.40227989671096;-3.6738338512955258;Diner
Pacífico;40.40436452923719;-3.6786387363233;Monte Pinos;40.40265272582209;-3.6775457204640265;Café
Pacífico;40.40436452923719;-3.6786387363233;ATI-2;40.404751937209745;-3.682186021837285;Bar
Pacífico;40.40436452923719;-3.6786387363233;Restaurante Chino Jin Yuan;40.40317599898042;-3.6814112813846984;Asian Restaurant
Pacífico;40.40436452923719;-3.6786387363233;El Bodegon del Molinero;40.405703224174445;-3.675115619815006;Bar
Adelfas;40.401125755089495;-3.670882694025923;Gangnam;40.40281988224854;-3.6717117544024824;Korean Restaurant
Adelfas;40.401125755089495;-3.670882694025923;Apetit'oh! Taller;40.403658385184805;-3.6710498037778176;Food & Drink Shop
Adelfas;40.401125755089495;-3.670882694025923;Libreria La Lumbre;40.402952;-3.675351;Bookstore
Adelfas;40.401125755089495;-3.670882694025923;Mercadona;40.40488106383507;-3.670555895532272;Supermarket
Adelfas;40.401125755089495;-3.670882694025923;Nave de Motores Metro de Madrid;40.40432485482223;-3.6739338388682916;Museum
Adelfas;40.401125755089495;-3.670882694025923;Novell Training;40.40049555857917;-3.6734429801106048;Coffee Shop
Adelfas;40.401125755089495;-3.670882694025923;Femary;40.399464508473265;-3.6714450484076506;Tapas Restaurant
Adelfas;40.401125755089495;-3.670882694025923;Instalacion Deportiva Municipal Adelfas;40.40352545522929;-3.6685800957454324;Soccer Field
Adelfas;40.401125755089495;-3.670882694025923;Lizarran;40.39819024020586;-3.6689210145453695;Tapas Restaurant
Adelfas;40.401125755089495;-3.670882694025923;AhorraMas;40.39946780359834;-3.6725737321219745;Supermarket
Adelfas;40.401125755089495;-3.670882694025923;Tiger;40.40144628669691;-3.6748376032464813;Gift Shop
Adelfas;40.401125755089495;-3.670882694025923;Callao24 by Jhosef Arias;40.39797561760422;-3.667129576206207;Peruvian Restaurant
Adelfas;40.401125755089495;-3.670882694025923;Body Factory;40.400295025176526;-3.670797173931382;Gym
Adelfas;40.401125755089495;-3.670882694025923;la Sirena;40.39881745632077;-3.670006229181634;Grocery Store
Adelfas;40.401125755089495;-3.670882694025923;La Antequerana;40.403256331675344;-3.6731419204177653;Brewery
Adelfas;40.401125755089495;-3.670882694025923;Ruta Las Hurdes;40.40227989671096;-3.6738338512955258;Diner
Adelfas;40.401125755089495;-3.670882694025923;Granier;40.4020116770184;-3.674385568988622;Bakery
Adelfas;40.401125755089495;-3.670882694025923;New Bombay Palace;40.40495998117542;-3.671540576680082;Indian Restaurant
Adelfas;40.401125755089495;-3.670882694025923;Los Gauchos;40.40219561090743;-3.6736735447928632;Sandwich Place
Adelfas;40.401125755089495;-3.670882694025923;Campo De Las Adelfas;40.40314475961148;-3.6688425408877916;Football Stadium
Adelfas;40.401125755089495;-3.670882694025923;Estrella Central;40.40083721199781;-3.674107744963062;Asian Restaurant
Adelfas;40.401125755089495;-3.670882694025923;Bar Santander-Camuy;40.39770412495976;-3.6678964574055914;Café
Adelfas;40.401125755089495;-3.670882694025923;la Sirena;40.40455025487673;-3.6719028509865215;Grocery Store
Adelfas;40.401125755089495;-3.670882694025923;Casa Bustos;40.40200216032936;-3.670151073178109;Spanish Restaurant
Adelfas;40.401125755089495;-3.670882694025923;Hotel NH Madrid Sur;40.398955968827686;-3.6701524819406264;Hotel
Adelfas;40.401125755089495;-3.670882694025923;Telepizza;40.40251025957952;-3.6736666577403905;Pizza Place
Adelfas;40.401125755089495;-3.670882694025923;Carrefour Market;40.39785629947126;-3.6681478233964633;Supermarket
Adelfas;40.401125755089495;-3.670882694025923;Burger King;40.39791519585962;-3.6692710646319853;Fast Food Restaurant
Adelfas;40.401125755089495;-3.670882694025923;Rotonda de Pacífico;40.40143436080232;-3.6746288152848914;Spanish Restaurant
Adelfas;40.401125755089495;-3.670882694025923;Churreria La Mejor;40.40027;-3.673496;Breakfast Spot
Adelfas;40.401125755089495;-3.670882694025923;McDonald's;40.398450652334255;-3.668956432600495;Fast Food Restaurant
Adelfas;40.401125755089495;-3.670882694025923;La Monumental;40.401952261721824;-3.675561612591638;Bar
Adelfas;40.401125755089495;-3.670882694025923;Metro Pacífico;40.40154621177326;-3.674683426303285;Metro Station
Adelfas;40.401125755089495;-3.670882694025923;Restaurante Vermont;40.40403;-3.671908;Spanish Restaurant
Adelfas;40.401125755089495;-3.670882694025923;Vermont Bar;40.404077974708315;-3.6720068453649923;Spanish Restaurant
Adelfas;40.401125755089495;-3.670882694025923;Cafeteria Gloria;40.40415593478302;-3.672383561563135;Bar
Adelfas;40.401125755089495;-3.670882694025923;Cerveceria Estrella Galicia;40.40502305698139;-3.671450147882401;Bar
Adelfas;40.401125755089495;-3.670882694025923;Irish City Sports Bar;40.40215507404311;-3.67541897018435;Bar
Adelfas;40.401125755089495;-3.670882694025923;E.S. Cepsa;40.402245857420624;-3.6758646929166385;Gas Station
Adelfas;40.401125755089495;-3.670882694025923;Condis;40.40309638734783;-3.6753880977630615;Grocery Store
Adelfas;40.401125755089495;-3.670882694025923;Pista De Patinaje Pacifico;40.400174251919466;-3.676161843589945;Skate Park
Estrella;40.41409640267246;-3.665440274640526;Parque de Roma;40.41647864651113;-3.6625095757461117;Park
Estrella;40.41409640267246;-3.665440274640526;Centro de Natación Mundial 86;40.41521289622584;-3.6667733548991706;Pool
Estrella;40.41409640267246;-3.665440274640526;Ayre Gran Hotel Colón;40.41314992677342;-3.669206785412109;Hotel
Estrella;40.41409640267246;-3.665440274640526;Centro Deportivo SMP;40.414406129836806;-3.6709736655840794;Athletics & Sports
Estrella;40.41409640267246;-3.665440274640526;Ginos Dr Esquerdo 66;40.41376561895185;-3.6699056625366215;Italian Restaurant
Estrella;40.41409640267246;-3.665440274640526;Zen Bamboo;40.41322544338411;-3.669783096156558;Asian Restaurant
Estrella;40.41409640267246;-3.665440274640526;Real Canoe Natación Club;40.413141860713104;-3.664793210338826;Sports Club
Estrella;40.41409640267246;-3.665440274640526;Alcampo;40.41212129775115;-3.6601821090419695;Big Box Store
Estrella;40.41409640267246;-3.665440274640526;Norba;40.411976412393884;-3.6635778784988844;Bar
Estrella;40.41409640267246;-3.665440274640526;Mallorca en Madrid;40.41226079039923;-3.668175784465537;Coffee Shop
Estrella;40.41409640267246;-3.665440274640526;China City;40.41457856467919;-3.6699369024008117;Chinese Restaurant
Estrella;40.41409640267246;-3.665440274640526;Caprabo;40.417028220760386;-3.664356402185694;Supermarket
Estrella;40.41409640267246;-3.665440274640526;90 Grados;40.41642020430463;-3.669689555994425;Cocktail Bar
Estrella;40.41409640267246;-3.665440274640526;Cafetería Estrella Polar;40.41063232664059;-3.6663536113805777;Coffee Shop
Estrella;40.41409640267246;-3.665440274640526;Taberna La Olla;40.41635;-3.663809;Spanish Restaurant
Estrella;40.41409640267246;-3.665440274640526;Paseo de John Lennon;40.416682158914185;-3.6671391476713553;Park
Estrella;40.41409640267246;-3.665440274640526;Galería La Estrella;40.41157635866487;-3.668264150619507;Grocery Store
Estrella;40.41409640267246;-3.665440274640526;Metro Sáinz de Baranda;40.41511923434869;-3.6696249326159633;Metro Station
Estrella;40.41409640267246;-3.665440274640526;Farmacia F. Mourenza;40.41741339936553;-3.664405915889185;Pharmacy
Estrella;40.41409640267246;-3.665440274640526;El Resplandor;40.41746638440317;-3.6644702837763496;Spanish Restaurant
Estrella;40.41409640267246;-3.665440274640526;La cocina de David;40.417755;-3.66639;Café
Estrella;40.41409640267246;-3.665440274640526;Bamboo Asian Restaurant;40.41651387557032;-3.6692634463232716;Asian Restaurant
Estrella;40.41409640267246;-3.665440274640526;Viena Capellanes;40.41014107773744;-3.666039895356726;Food & Drink Shop
Estrella;40.41409640267246;-3.665440274640526;Intrum Justitia;40.41810826356405;-3.6642379771456155;Restaurant
Estrella;40.41409640267246;-3.665440274640526;Parada E.M.T #821;40.41117760205055;-3.6697289223028324;Bus Station
Ibiza;40.41888750824856;-3.674244028679829;Laredo;40.42031260723626;-3.6751586693950693;Tapas Restaurant
Ibiza;40.41888750824856;-3.674244028679829;Rafa;40.417979983083995;-3.6762790420200058;Seafood Restaurant
Ibiza;40.41888750824856;-3.674244028679829;Restaurante Triana;40.41966385861264;-3.676106334700902;Tapas Restaurant
Ibiza;40.41888750824856;-3.674244028679829;La Castela;40.42043470417075;-3.6765640741828016;Tapas Restaurant
Ibiza;40.41888750824856;-3.674244028679829;Carlos Tartiere Restaurante Sidrería;40.41943430091056;-3.6749569821298427;Spanish Restaurant
Ibiza;40.41888750824856;-3.674244028679829;Couzapín;40.419481963500274;-3.675226662320087;Mediterranean Restaurant
Ibiza;40.41888750824856;-3.674244028679829;Heladeria Sienna;40.41855858033005;-3.6762075567855397;Ice Cream Shop
Ibiza;40.41888750824856;-3.674244028679829;La Raquetista;40.42046271831923;-3.6771653141330463;Tapas Restaurant
Ibiza;40.41888750824856;-3.674244028679829;Sazón-arte;40.41959436143268;-3.6771275953506923;Restaurant
Ibiza;40.41888750824856;-3.674244028679829;La Hoja;40.420226288091335;-3.6735019571240235;Spanish Restaurant
Ibiza;40.41888750824856;-3.674244028679829;Cines Renoir Retiro;40.420127963217816;-3.676062766430889;Movie Theater
Ibiza;40.41888750824856;-3.674244028679829;Barandales;40.41947789787251;-3.675319992036215;Spanish Restaurant
Ibiza;40.41888750824856;-3.674244028679829;La Montería;40.420308064026166;-3.677628503594477;Mediterranean Restaurant
Ibiza;40.41888750824856;-3.674244028679829;Fathe Pur;40.418165134200436;-3.6735083225160654;Indian Restaurant
Ibiza;40.41888750824856;-3.674244028679829;Pastelería Nunos;40.41671803942398;-3.676378654679091;Cupcake Shop
Ibiza;40.41888750824856;-3.674244028679829;Marcano;40.42039014809476;-3.675291538238526;Spanish Restaurant
Ibiza;40.41888750824856;-3.674244028679829;Levadura Madre;40.41701430218305;-3.6766482329797183;Bakery
Ibiza;40.41888750824856;-3.674244028679829;Re-Read;40.42156796664293;-3.675488304573263;Used Bookstore
Ibiza;40.41888750824856;-3.674244028679829;La Tasquería;40.42238601054716;-3.673697687593717;Spanish Restaurant
Ibiza;40.41888750824856;-3.674244028679829;Mercado de Ibiza;40.41835083351336;-3.677210018044372;Gastropub
Ibiza;40.41888750824856;-3.674244028679829;Taberna & Media;40.42076656206956;-3.6776592994297235;Restaurant
Ibiza;40.41888750824856;-3.674244028679829;Cosme;40.42253079371312;-3.6753822934123535;Spanish Restaurant
Ibiza;40.41888750824856;-3.674244028679829;Trenque Lauquen;40.41765396468883;-3.678525403460796;Argentinian Restaurant
Ibiza;40.41888750824856;-3.674244028679829;CASABASE;40.420487711166736;-3.6784895843409613;Bakery
Ibiza;40.41888750824856;-3.674244028679829;Casa de Fieras;40.419807;-3.6789658;Restaurant
Ibiza;40.41888750824856;-3.674244028679829;Vinos De Bellota;40.42067595716258;-3.679058690556566;Spanish Restaurant
Ibiza;40.41888750824856;-3.674244028679829;La Hora Del Vermut;40.419387;-3.674601;Gastropub
Ibiza;40.41888750824856;-3.674244028679829;Taberna Arzábal;40.42048735129334;-3.679371801408269;Spanish Restaurant
Ibiza;40.41888750824856;-3.674244028679829;Levél Veggie Bistro;40.41573017435576;-3.6776411533355713;Vegetarian / Vegan Restaurant
Ibiza;40.41888750824856;-3.674244028679829;KultO;40.41838587249439;-3.6782228944652724;Spanish Restaurant
Ibiza;40.41888750824856;-3.674244028679829;Kzen;40.42199521982147;-3.6766559305726085;Asian Restaurant
Ibiza;40.41888750824856;-3.674244028679829;Castelados;40.42070698286369;-3.6790904867593115;Spanish Restaurant
Ibiza;40.41888750824856;-3.674244028679829;El Pequeño Barco;40.42311252932071;-3.672729550337342;Seafood Restaurant
Ibiza;40.41888750824856;-3.674244028679829;Zoko;40.418842313259724;-3.6789829439199644;Restaurant
Ibiza;40.41888750824856;-3.674244028679829;Florida Retiro;40.41837386395928;-3.679842549066969;Gastropub
Ibiza;40.41888750824856;-3.674244028679829;A Japanese Kirikata;40.421448376229414;-3.6789918831772366;Restaurant
Ibiza;40.41888750824856;-3.674244028679829;Novotel Madrid Center;40.42163976743191;-3.672283767820545;Hotel
Ibiza;40.41888750824856;-3.674244028679829;Sa Brisa;40.420051;-3.679481;Mediterranean Restaurant
Ibiza;40.41888750824856;-3.674244028679829;La Mafia se sienta a la Mesa;40.41809412529329;-3.6724453188162314;Italian Restaurant
Ibiza;40.41888750824856;-3.674244028679829;La Despensa de Ibiza;40.417747;-3.671433;Spanish Restaurant
Ibiza;40.41888750824856;-3.674244028679829;La Goyesca II;40.421134496235815;-3.669372387125305;Spanish Restaurant
Ibiza;40.41888750824856;-3.674244028679829;El Refectorio de Ibiza;40.418044596298145;-3.670030988798453;Brewery
Ibiza;40.41888750824856;-3.674244028679829;Rodilla;40.421517;-3.672303;Sandwich Place
Ibiza;40.41888750824856;-3.674244028679829;El Horno de O'Donnell;40.42141018758998;-3.6722861456954092;Café
Ibiza;40.41888750824856;-3.674244028679829;Pinocchio;40.415505691837794;-3.6717496111036207;Italian Restaurant
Ibiza;40.41888750824856;-3.674244028679829;Bar Alemar;40.41813254356384;-3.671252131462097;Spanish Restaurant
Ibiza;40.41888750824856;-3.674244028679829;90 Grados;40.41642020430463;-3.669689555994425;Cocktail Bar
Ibiza;40.41888750824856;-3.674244028679829;El Paleto;40.41652201;-3.671766946;Spanish Restaurant
Ibiza;40.41888750824856;-3.674244028679829;Cafeteria del Docente del Gregorio Marañón;40.41835805277644;-3.6704945672715614;Breakfast Spot
Ibiza;40.41888750824856;-3.674244028679829;Jamaica;40.41760579968027;-3.670328930495112;Café
Jerónimos;40.413757394690066;-3.6850514182640266;Palacio de Velázquez;40.415139;-3.681975;Art Museum
Jerónimos;40.413757394690066;-3.6850514182640266;Parque del Retiro;40.41517879765204;-3.6814713478088374;Park
Jerónimos;40.413757394690066;-3.6850514182640266;Fuente de la Alcachofa;40.415393031703466;-3.6841059766098745;Fountain
Jerónimos;40.413757394690066;-3.6850514182640266;Bosque del Recuerdo;40.41182551314738;-3.68719375168439;Garden
Jerónimos;40.413757394690066;-3.6850514182640266;Monumento a Alfonso XII de España;40.41708118988738;-3.6831397416225222;Monument / Landmark
Jerónimos;40.413757394690066;-3.6850514182640266;Monumento del Ángel Caído;40.4111068943346;-3.6825182708443407;Monument / Landmark
Jerónimos;40.413757394690066;-3.6850514182640266;Plaza del Parterre;40.41522780909755;-3.687715530395508;Plaza
Jerónimos;40.413757394690066;-3.6850514182640266;Casón del Buen Retiro;40.41522780909755;-3.689056634902954;Art Museum
Jerónimos;40.413757394690066;-3.6850514182640266;Parque de Madrid;40.416667667785376;-3.688675277953734;Park
Jerónimos;40.413757394690066;-3.6850514182640266;Centro Deportivo Municipal La Chopera;40.412393255161554;-3.686192035675049;Athletics & Sports
Jerónimos;40.413757394690066;-3.6850514182640266;Sucre;40.41397476196289;-3.689303398132324;Tea Room
Jerónimos;40.413757394690066;-3.6850514182640266;Trattoria Arcangelo;40.41336961522739;-3.6902642454019836;Italian Restaurant
Jerónimos;40.413757394690066;-3.6850514182640266;Puerta de España de los Jardines del Buen Retiro;40.41670893194733;-3.6886239351394643;Park
Jerónimos;40.413757394690066;-3.6850514182640266;El 17 De Moreto;40.41287265988524;-3.6903099442346066;Gastropub
Jerónimos;40.413757394690066;-3.6850514182640266;Quiosco El Ancla Parque del Retiro;40.415980446354624;-3.683120621549787;Coffee Shop
Jerónimos;40.413757394690066;-3.6850514182640266;L'Academia;40.414813316035136;-3.6899862339730776;Coffee Shop
Jerónimos;40.413757394690066;-3.6850514182640266;Las Estatuas;40.41666890721952;-3.6848522940992776;Café
Jerónimos;40.413757394690066;-3.6850514182640266;Teraza Galapagos;40.418117951038205;-3.685386562967087;Snack Place
Jerónimos;40.413757394690066;-3.6850514182640266;dommo;40.416189862937614;-3.690021956807389;Office
Jerónimos;40.413757394690066;-3.6850514182640266;Torrenostra;40.414208530816225;-3.690413777278336;Mediterranean Restaurant
Jerónimos;40.413757394690066;-3.6850514182640266;Plaza De Honduras;40.415455661227405;-3.684235105622093;Plaza
Jerónimos;40.413757394690066;-3.6850514182640266;Bar El Mirador El Estanque;40.41570087500104;-3.6838437207564;Snack Place
Jerónimos;40.413757394690066;-3.6850514182640266;Cafetería Los Jerónimos;40.414066337579364;-3.6904136001225036;Diner
Jerónimos;40.413757394690066;-3.6850514182640266;Fuente Egipcia II;40.41563011003027;-3.683794140815735;Café
Jerónimos;40.413757394690066;-3.6850514182640266;Paellador;40.41482244252682;-3.6826327443122864;Paella Restaurant
Jerónimos;40.413757394690066;-3.6850514182640266;Monumento A Jacinto Benavente;40.415261;-3.687063;Outdoor Sculpture
Jerónimos;40.413757394690066;-3.6850514182640266;Estanque del Retiro;40.416747026724046;-3.683858654920246;Lake
Jerónimos;40.413757394690066;-3.6850514182640266;Bar Mirador Ángel Caído;40.411286;-3.682372;Diner
Jerónimos;40.413757394690066;-3.6850514182640266;Paseo de las Estatuas;40.41666546228339;-3.687458038330078;Park
Jerónimos;40.413757394690066;-3.6850514182640266;Feria Del Libro 2019;40.41478311096502;-3.6796881120757967;Shopping Plaza
Jerónimos;40.413757394690066;-3.6850514182640266;El Paseo;40.416424;-3.680611;Snack Place
Jerónimos;40.413757394690066;-3.6850514182640266;Bar Fuente de la Rosaleda;40.411766287985124;-3.6799344420433044;Café
Jerónimos;40.413757394690066;-3.6850514182640266;Fuente de los Galapagos;40.41814807113491;-3.6854253027239032;Fountain
Jerónimos;40.413757394690066;-3.6850514182640266;the spanish farm;40.412908;-3.690746;Spanish Restaurant
Niño Jesús;40.411616952318;-3.6733369357533623;Pazo de Coruña;40.41361328188346;-3.6746505312548474;Spanish Restaurant
Niño Jesús;40.411616952318;-3.6733369357533623;La Mordida De Pio;40.41367370964186;-3.674253652423196;Mexican Restaurant
Niño Jesús;40.411616952318;-3.6733369357533623;Jardines de Cecilio Rodríguez;40.41271436961524;-3.677826255610415;Garden
Niño Jesús;40.411616952318;-3.6733369357533623;CrossFit Krig Retiro;40.41110903508663;-3.67193062153981;Gym
Niño Jesús;40.411616952318;-3.6733369357533623;La Tierruca en El Retiro;40.41126262095118;-3.6711322691113772;Brewery
Niño Jesús;40.411616952318;-3.6733369357533623;Centro Deportivo SMP;40.414406129836806;-3.6709736655840794;Athletics & Sports
Niño Jesús;40.411616952318;-3.6733369357533623;Ayre Gran Hotel Colón;40.41314992677342;-3.669206785412109;Hotel
Niño Jesús;40.411616952318;-3.6733369357533623;Casa Santoña;40.41132894804058;-3.6710535102530657;Spanish Restaurant
Niño Jesús;40.411616952318;-3.6733369357533623;Zen Bamboo;40.41322544338411;-3.669783096156558;Asian Restaurant
Niño Jesús;40.411616952318;-3.6733369357533623;Ginos Dr Esquerdo 66;40.41376561895185;-3.6699056625366215;Italian Restaurant
Niño Jesús;40.411616952318;-3.6733369357533623;Supercor;40.40947426082295;-3.6759340279173864;Supermarket
Niño Jesús;40.411616952318;-3.6733369357533623;Mercadona;40.4092701691319;-3.67586328342181;Supermarket
Niño Jesús;40.411616952318;-3.6733369357533623;Restaurante Landania;40.408248928;-3.67466075;Mediterranean Restaurant
Niño Jesús;40.411616952318;-3.6733369357533623;La Fábrica de la Yaya;40.40849392030958;-3.676414010381552;Tapas Restaurant
Niño Jesús;40.411616952318;-3.6733369357533623;Restaurante La Parisiena;40.4085273038493;-3.6704395993375925;Spanish Restaurant
Niño Jesús;40.411616952318;-3.6733369357533623;Jazzville;40.409890219621914;-3.6711054762461637;Jazz Club
Niño Jesús;40.411616952318;-3.6733369357533623;Plaza Doctor Laguna;40.415109833765456;-3.6733191737824913;Plaza
Niño Jesús;40.411616952318;-3.6733369357533623;Caprabo;40.409705300454284;-3.6696992109418702;Grocery Store
Niño Jesús;40.411616952318;-3.6733369357533623;China City;40.41457856467919;-3.6699369024008117;Chinese Restaurant
Niño Jesús;40.411616952318;-3.6733369357533623;Decake;40.4110749574222;-3.6711689832485934;Dessert Shop
Niño Jesús;40.411616952318;-3.6733369357533623;Bar La Colonia;40.40905647530519;-3.6721452136237223;Spanish Restaurant
Niño Jesús;40.411616952318;-3.6733369357533623;Mallorca en Madrid;40.41226079039923;-3.668175784465537;Coffee Shop
Niño Jesús;40.411616952318;-3.6733369357533623;Pinocchio;40.415505691837794;-3.6717496111036207;Italian Restaurant
Niño Jesús;40.411616952318;-3.6733369357533623;Parada E.M.T #821;40.41117760205055;-3.6697289223028324;Bus Station
Niño Jesús;40.411616952318;-3.6733369357533623;Cervecería Cruz Blanca;40.409047668744016;-3.669954000487602;Bar
Niño Jesús;40.411616952318;-3.6733369357533623;Cafetería Gost Lira;40.40853954133043;-3.6690504154715966;Coffee Shop
Niño Jesús;40.411616952318;-3.6733369357533623;Galería La Estrella;40.41157635866487;-3.668264150619507;Grocery Store
Recoletos;40.42460926005072;-3.6857336566896275;Amazónico;40.42383753262332;-3.6850245572738443;Restaurant
Recoletos;40.42460926005072;-3.6857336566896275;El Paraguas;40.42386542247894;-3.685813532393988;Spanish Restaurant
Recoletos;40.42460926005072;-3.6857336566896275;La Maquina Jorge Juan;40.42382256919969;-3.686157243920154;Spanish Restaurant
Recoletos;40.42460926005072;-3.6857336566896275;& Other Stories;40.426510155462935;-3.6864513368464404;Accessories Store
Recoletos;40.42460926005072;-3.6857336566896275;Ultramarinos Quintin;40.42388436145204;-3.6854034088389005;Restaurant
Recoletos;40.42460926005072;-3.6857336566896275;MAC Cosmetics;40.42539878170144;-3.687556200485783;Cosmetics Shop
Recoletos;40.42460926005072;-3.6857336566896275;Uniqlo;40.424982;-3.687198;Clothing Store
Recoletos;40.42460926005072;-3.6857336566896275;Federica & Co.;40.426082136275824;-3.684854386681638;Thrift / Vintage Store
Recoletos;40.42460926005072;-3.6857336566896275;La Giralda IV;40.423349301181304;-3.6867574466317414;Spanish Restaurant
Recoletos;40.42460926005072;-3.6857336566896275;MORE;40.42388443976496;-3.6838091221418963;Restaurant
Recoletos;40.42460926005072;-3.6857336566896275;Loewe;40.42522455316384;-3.687900462936981;Accessories Store
Recoletos;40.42460926005072;-3.6857336566896275;Museo Arqueológico Nacional (MAN);40.42325921497666;-3.688431683863512;History Museum
Recoletos;40.42460926005072;-3.6857336566896275;Numa;40.42332677352945;-3.6836398220709308;Italian Restaurant
Recoletos;40.42460926005072;-3.6857336566896275;Zara Home;40.42640861089549;-3.6863672631375324;Furniture / Home Store
Recoletos;40.42460926005072;-3.6857336566896275;Lux;40.4238433190922;-3.684846637626769;Spanish Restaurant
Recoletos;40.42460926005072;-3.6857336566896275;Zara;40.42640503064154;-3.6877887924669257;Clothing Store
Recoletos;40.42460926005072;-3.6857336566896275;La Bien Aparecida;40.42392365126327;-3.6869895666812744;Restaurant
Recoletos;40.42460926005072;-3.6857336566896275;Nike Store Serrano;40.4259637;-3.6880369;Sporting Goods Shop
Recoletos;40.42460926005072;-3.6857336566896275;La Tintorería II;40.423132523976015;-3.68525914801031;Liquor Store
Recoletos;40.42460926005072;-3.6857336566896275;Casa Dani;40.427095859479174;-3.6857193669863895;Tapas Restaurant
Recoletos;40.42460926005072;-3.6857336566896275;Canalla Bistro by Ricard Camarena;40.426057373983376;-3.688617396245811;Restaurant
Recoletos;40.42460926005072;-3.6857336566896275;Totém Hotel;40.42649137252127;-3.685439177277942;Hotel
Recoletos;40.42460926005072;-3.6857336566896275;Platea Madrid;40.426083288964996;-3.68866416486341;Tapas Restaurant
Recoletos;40.42460926005072;-3.6857336566896275;Los Gallos;40.42360857591356;-3.6863058165113634;Spanish Restaurant
Recoletos;40.42460926005072;-3.6857336566896275;Mercado de la Paz;40.42713220520718;-3.6856961473681604;Market
Recoletos;40.42460926005072;-3.6857336566896275;Goiko Grill;40.423163109748145;-3.682931882252744;Burger Joint
Recoletos;40.42460926005072;-3.6857336566896275;Numa Pompilio;40.423323;-3.684077;Italian Restaurant
Recoletos;40.42460926005072;-3.6857336566896275;MUJI;40.42545350431534;-3.6885256141991096;Miscellaneous Shop
Recoletos;40.42460926005072;-3.6857336566896275;Hotel Wellington;40.422255242414856;-3.684230730867949;Hotel
Recoletos;40.42460926005072;-3.6857336566896275;Kabuki Wellington;40.42189124807032;-3.6842165091037944;Japanese Restaurant
Recoletos;40.42460926005072;-3.6857336566896275;99 Sushi Bar;40.42659511541311;-3.6888195991425463;Japanese Restaurant
Recoletos;40.42460926005072;-3.6857336566896275;Ornella;40.423326402024166;-3.6841107506227373;Italian Restaurant
Recoletos;40.42460926005072;-3.6857336566896275;The Jungle Jazz Club By Amazónico;40.42384741443093;-3.6849348439859813;Jazz Club
Recoletos;40.42460926005072;-3.6857336566896275;Ikea;40.425139952547575;-3.6823774022403253;Furniture / Home Store
Recoletos;40.42460926005072;-3.6857336566896275;Aristocrazy Serrano Concept;40.42694974900875;-3.687624370043814;Jewelry Store
Recoletos;40.42460926005072;-3.6857336566896275;La Cocina De Maria Luisa;40.42351295845048;-3.681737967100161;Spanish Restaurant
Recoletos;40.42460926005072;-3.6857336566896275;La Maruca;40.42747655521919;-3.6839650810190783;Spanish Restaurant
Recoletos;40.42460926005072;-3.6857336566896275;StreetXO;40.427687702735966;-3.687255526702393;Restaurant
Recoletos;40.42460926005072;-3.6857336566896275;Faborit;40.425101150974;-3.6829339537250934;Coffee Shop
Recoletos;40.42460926005072;-3.6857336566896275;La Trainera;40.427213881;-3.685110459;Seafood Restaurant
Recoletos;40.42460926005072;-3.6857336566896275;Bump Green;40.422094;-3.68457;Restaurant
Recoletos;40.42460926005072;-3.6857336566896275;Babelia;40.423531233458256;-3.6863323213162427;Spanish Restaurant
Recoletos;40.42460926005072;-3.6857336566896275;Mamá Framboise Platea;40.425972295639724;-3.6891421026901496;Coffee Shop
Recoletos;40.42460926005072;-3.6857336566896275;Taqueria La Lupita;40.422424416498465;-3.6856000528064166;Mexican Restaurant
Recoletos;40.42460926005072;-3.6857336566896275;Massimo Dutti;40.427210093210725;-3.6873030694813873;Boutique
Recoletos;40.42460926005072;-3.6857336566896275;Plaza de Colón;40.42514086553938;-3.6901596200938935;Plaza
Recoletos;40.42460926005072;-3.6857336566896275;Café de París, L' Entrecot;40.4217888286696;-3.686746541664355;Restaurant
Recoletos;40.42460926005072;-3.6857336566896275;Dingo;40.427247176993625;-3.6840717542142727;American Restaurant
Recoletos;40.42460926005072;-3.6857336566896275;Hotel Jardín de Recoletos;40.422124489254095;-3.6891995566158484;Hotel
Recoletos;40.42460926005072;-3.6857336566896275;Palazzo;40.42511311759939;-3.6823779210896026;Ice Cream Shop
Goya;40.42505631445714;-3.6743303732626806;El Gran Barril;40.424551794594144;-3.6731258506053215;Spanish Restaurant
Goya;40.42505631445714;-3.6743303732626806;El Corte Inglés Libros;40.424890541890164;-3.6768118209932976;Bookstore
Goya;40.42505631445714;-3.6743303732626806;El Barril de Goya;40.424552621076735;-3.672621755574492;Seafood Restaurant
Goya;40.42505631445714;-3.6743303732626806;Holiday Gym;40.426284868454744;-3.6740444021086756;Gym / Fitness Center
Goya;40.42505631445714;-3.6743303732626806;Gourmet Experience;40.42484697931896;-3.6767433641453096;Gourmet Shop
Goya;40.42505631445714;-3.6743303732626806;Grosso Napoletano;40.42602629298819;-3.6770535074744846;Italian Restaurant
Goya;40.42505631445714;-3.6743303732626806;Carrefour Market;40.42639398294347;-3.6755584569383837;Supermarket
Goya;40.42505631445714;-3.6743303732626806;Le Petit Prince;40.42434811796015;-3.6741649425580265;French Restaurant
Goya;40.42505631445714;-3.6743303732626806;Masajes y Técnicas Orientales Hermosilla S. L.;40.42556842561736;-3.6721372604370117;Spa
Goya;40.42505631445714;-3.6743303732626806;Wizink Center - Palacio de Deportes de la Comunidad de Madrid (Wizink Center);40.423853267434524;-3.671815395355224;Basketball Stadium
Goya;40.42505631445714;-3.6743303732626806;El Pequeño Barco;40.42311252932071;-3.672729550337342;Seafood Restaurant
Goya;40.42505631445714;-3.6743303732626806;Viding;40.427872918599405;-3.6736856276790264;Gymnastics Gym
Goya;40.42505631445714;-3.6743303732626806;La Flor de Galicia;40.4269221341533;-3.673992683872902;Seafood Restaurant
Goya;40.42505631445714;-3.6743303732626806;Tres Por Cuatro;40.425737;-3.676894;Restaurant
Goya;40.42505631445714;-3.6743303732626806;Zara;40.42663274030213;-3.675241729160178;Clothing Store
Goya;40.42505631445714;-3.6743303732626806;Cosme;40.42253079371312;-3.6753822934123535;Spanish Restaurant
Goya;40.42505631445714;-3.6743303732626806;Tuk tuk;40.42613425891135;-3.672847618648666;Thai Restaurant
Goya;40.42505631445714;-3.6743303732626806;La Tasquería;40.42238601054716;-3.673697687593717;Spanish Restaurant
Goya;40.42505631445714;-3.6743303732626806;Casa del Libro;40.4244990528701;-3.6763062540013016;Bookstore
Goya;40.42505631445714;-3.6743303732626806;LUSH;40.42534518682694;-3.6745260508792623;Cosmetics Shop
Goya;40.42505631445714;-3.6743303732626806;Los Torreznos;40.42445;-3.672366;Tapas Restaurant
Goya;40.42505631445714;-3.6743303732626806;La Divina de Goya;40.424660063327764;-3.6725519851189117;Spanish Restaurant
Goya;40.42505631445714;-3.6743303732626806;Dealz;40.4259403261499;-3.6732231381333467;Discount Store
Goya;40.42505631445714;-3.6743303732626806;la gaditana;40.42486448041017;-3.670859723201479;Spanish Restaurant
Goya;40.42505631445714;-3.6743303732626806;El Fogón de Trifón;40.42714000032281;-3.6717371013425586;Spanish Restaurant
Goya;40.42505631445714;-3.6743303732626806;Plaza de Felipe II;40.42407118215651;-3.6744284893058694;Plaza
Goya;40.42505631445714;-3.6743303732626806;Ramen Shifu;40.42739329175855;-3.676827705120416;Ramen Restaurant
Goya;40.42505631445714;-3.6743303732626806;b3b woman studio;40.427441957528565;-3.675612116218762;Gymnastics Gym
Goya;40.42505631445714;-3.6743303732626806;Tim Hortons;40.425449708250206;-3.6743570072869014;Coffee Shop
Goya;40.42505631445714;-3.6743303732626806;SHALAKABULA;40.428642380718046;-3.6749512513593134;Spanish Restaurant
Goya;40.42505631445714;-3.6743303732626806;Rawcoco Green Bar;40.4261322084992;-3.678593865357075;Juice Bar
Goya;40.42505631445714;-3.6743303732626806;Restaurante El Buey;40.42531881257637;-3.677227482061503;Steakhouse
Goya;40.42505631445714;-3.6743303732626806;H&M;40.42650561857463;-3.675409555435181;Clothing Store
Goya;40.42505631445714;-3.6743303732626806;Plaza de Salvador Dalí;40.423929560248595;-3.6734627891512694;Plaza
Goya;40.42505631445714;-3.6743303732626806;La Tagliatella;40.424425913969834;-3.673252157055283;Italian Restaurant
Goya;40.42505631445714;-3.6743303732626806;El Corte Inglés;40.42447570277422;-3.675026611301306;Department Store
Goya;40.42505631445714;-3.6743303732626806;La Gaditana;40.425477866029695;-3.672520481729123;Tapas Restaurant
Goya;40.42505631445714;-3.6743303732626806;Cinco Sentidos;40.425100235655;-3.6725665005509276;Spanish Restaurant
Goya;40.42505631445714;-3.6743303732626806;Pasteleria Formentor;40.42601762648567;-3.677394390106201;Café
Goya;40.42505631445714;-3.6743303732626806;El Corte Inglés;40.425102887006425;-3.676868677139282;Department Store
Goya;40.42505631445714;-3.6743303732626806;Ayala Japón;40.427447526656636;-3.6766177773094864;Japanese Restaurant
Goya;40.42505631445714;-3.6743303732626806;Nuevo Teatro Alcalá;40.42332263413418;-3.678201038304533;Theater
Goya;40.42505631445714;-3.6743303732626806;Fundue Si Chuang;40.425934;-3.674843;Chinese Restaurant
Goya;40.42505631445714;-3.6743303732626806;Goiko Grill;40.428843681419195;-3.6754006864803648;Burger Joint
Goya;40.42505631445714;-3.6743303732626806;Mercadona;40.42726;-3.6734693;Supermarket
Goya;40.42505631445714;-3.6743303732626806;La merendona;40.4238777217409;-3.678741550559273;Café
Goya;40.42505631445714;-3.6743303732626806;TreZe Restaurante & Bar;40.42718847645551;-3.678429449556118;Mediterranean Restaurant
Goya;40.42505631445714;-3.6743303732626806;El Horno de Juan;40.42369772289902;-3.677425405171391;Spanish Restaurant
Goya;40.42505631445714;-3.6743303732626806;Taberna Buendi;40.426666;-3.673866;Spanish Restaurant
Goya;40.42505631445714;-3.6743303732626806;Starbucks;40.426066801136066;-3.6756167469058876;Coffee Shop
Fuente del Berro;40.42478619924381;-3.663702777445319;Tablao Flamenco Cafetín La Quimera;40.42556485648155;-3.661699426689535;Performing Arts Venue
Fuente del Berro;40.42478619924381;-3.663702777445319;Crossfit Singular Box;40.42730913124123;-3.6623721718686006;Gym / Fitness Center
Fuente del Berro;40.42478619924381;-3.663702777445319;Parque Quinta de la Fuente del Berro;40.42264446301398;-3.661108016967773;Park
Fuente del Berro;40.42478619924381;-3.663702777445319;Cervecería Thomas;40.4278623780691;-3.6664501865943517;Brewery
Fuente del Berro;40.42478619924381;-3.663702777445319;Supermercado Mi Alcampo;40.4258611361747;-3.667141692444357;Grocery Store
Fuente del Berro;40.42478619924381;-3.663702777445319;Donde Ricky;40.425590560454204;-3.6690705898784004;Spanish Restaurant
Fuente del Berro;40.42478619924381;-3.663702777445319;Casco Antiguo;40.422819574235234;-3.6660971917757057;Dive Shop
Fuente del Berro;40.42478619924381;-3.663702777445319;Or-Dago;40.42659831353256;-3.6610967820128244;Spanish Restaurant
Fuente del Berro;40.42478619924381;-3.663702777445319;Teatro Tribueñe;40.42667436589053;-3.6608022705390604;Performing Arts Venue
Fuente del Berro;40.42478619924381;-3.663702777445319;Museo Casa de la Moneda;40.422829976125385;-3.668966336239829;Museum
Fuente del Berro;40.42478619924381;-3.663702777445319;Helados Sienna;40.42665430493626;-3.660812286318254;Ice Cream Shop
Fuente del Berro;40.42478619924381;-3.663702777445319;La Sirena;40.42625271189442;-3.664747561767294;Grocery Store
Fuente del Berro;40.42478619924381;-3.663702777445319;El Paladar;40.42605177310529;-3.665484589722698;Tapas Restaurant
Fuente del Berro;40.42478619924381;-3.663702777445319;Paseo Marques De Zafra;40.42593932378855;-3.6627899375048965;Park
Fuente del Berro;40.42478619924381;-3.663702777445319;Fitness Place;40.429057456820765;-3.665538886701721;Gym / Fitness Center
Fuente del Berro;40.42478619924381;-3.663702777445319;Bukardia;40.427139355975704;-3.6684861470808166;Bar
Fuente del Berro;40.42478619924381;-3.663702777445319;Restaurante Galicia Dourada;40.424107784585416;-3.6662635078978716;Restaurant
Fuente del Berro;40.42478619924381;-3.663702777445319;Biscotto;40.42307317290005;-3.6689694233447727;Coffee Shop
Fuente del Berro;40.42478619924381;-3.663702777445319;Carrefour Express;40.42782140030292;-3.6679229695139433;Convenience Store
